name,name_ascii,country_code,country_name,geo_region_abbr,population,timezone,latitude,longitude
Kabul,Kabul,AF,Afghanistan,,4434550,Asia/Kabul,34.52813,69.17233
Herāt,Herat,AF,Afghanistan,,574300,Asia/Kabul,34.34817,62.19967
Kandahār,Kandahar,AF,Afghanistan,,523300,Asia/Kabul,31.61332,65.71013
Mazār-e Sharīf,Mazar-e Sharif,AF,Afghanistan,,523300,Asia/Kabul,36.70904,67.11087
Jalālābād,Jalalabad,AF,Afghanistan,,271900,Asia/Kabul,34.42647,70.45153
Kunduz,Kunduz,AF,Afghanistan,,161902,Asia/Kabul,36.72895,68.857
Ghazni,Ghazni,AF,Afghanistan,,141000,Asia/Kabul,33.55391,68.42096
Balkh,Balkh,AF,Afghanistan,,114883,Asia/Kabul,36.75635,66.8972
Baghlān,Baghlan,AF,Afghanistan,,108449,Asia/Kabul,36.13068,68.70829
Gardez,Gardez,AF,Afghanistan,,103601,Asia/Kabul,33.59744,69.22592
Khōst,Khost,AF,Afghanistan,,96123,Asia/Kabul,33.33951,69.92041
Maymana,Maymana,AF,Afghanistan,,75900,Asia/Kabul,35.92139,64.78361
Khanabad,Khanabad,AF,Afghanistan,,71531,Asia/Kabul,36.68304,69.11279
Bāzārak,Bazarak,AF,Afghanistan,,65000,Asia/Kabul,35.31292,69.51519
Bāzār-e Yakāwlang,Bazar-e Yakawlang,AF,Afghanistan,,65000,Asia/Kabul,34.73525,66.97379
Khulm,Khulm,AF,Afghanistan,,64933,Asia/Kabul,36.69736,67.69826
Taloqan,Taloqan,AF,Afghanistan,,64256,Asia/Kabul,36.73605,69.53451
Bāmyān,Bamyan,AF,Afghanistan,,61863,Asia/Kabul,34.82156,67.82734
Pul-e Khumrī,Pul-e Khumri,AF,Afghanistan,,56369,Asia/Kabul,35.94458,68.71512
Shibirghān,Shibirghan,AF,Afghanistan,,55641,Asia/Kabul,36.66757,65.7529
Charikar,Charikar,AF,Afghanistan,,53676,Asia/Kabul,35.01361,69.17139
Sar-e Pul,Sar-e Pul,AF,Afghanistan,,52121,Asia/Kabul,36.21544,65.93249
Tirana,Tirana,AL,Albania,,374801,Europe/Tirane,41.3275,19.81889
Durrës,Durres,AL,Albania,,122034,Europe/Tirane,41.32355,19.45469
Elbasan,Elbasan,AL,Albania,,100903,Europe/Tirane,41.1125,20.08222
Vlorë,Vlore,AL,Albania,,89546,Europe/Tirane,40.4686,19.48318
Shkodër,Shkoder,AL,Albania,,88245,Europe/Tirane,42.06828,19.51258
Pogradec,Pogradec,AL,Albania,,61530,Europe/Tirane,40.9025,20.6525
Fier-Çifçi,Fier-Cifci,AL,Albania,,60995,Europe/Tirane,40.71667,19.56667
Patos,Patos,AL,Albania,,60000,Europe/Tirane,40.68333,19.61944
Korçë,Korce,AL,Albania,,58259,Europe/Tirane,40.61861,20.78083
Fier,Fier,AL,Albania,,56297,Europe/Tirane,40.72389,19.55611
Algiers,Algiers,DZ,Algeria,,1977663,Africa/Algiers,36.73225,3.08746
Boumerdas,Boumerdas,DZ,Algeria,,786499,Africa/Algiers,36.76639,3.47717
Oran,Oran,DZ,Algeria,,645984,Africa/Algiers,35.69906,-0.63588
Tébessa,Tebessa,DZ,Algeria,,634332,Africa/Algiers,35.40417,8.12417
Constantine,Constantine,DZ,Algeria,,450097,Africa/Algiers,36.365,6.61472
Biskra,Biskra,DZ,Algeria,,307987,Africa/Algiers,34.85038,5.72805
Sétif,Setif,DZ,Algeria,,288461,Africa/Algiers,36.19112,5.41373
Batna,Batna,DZ,Algeria,,280798,Africa/Algiers,35.55597,6.17414
Bab Ezzouar,Bab Ezzouar,DZ,Algeria,,275630,Africa/Algiers,36.72615,3.18291
Annaba,Annaba,DZ,Algeria,,206570,Africa/Algiers,36.9,7.76667
Sidi Bel Abbès,Sidi Bel Abbes,DZ,Algeria,,191769,Africa/Algiers,35.18994,-0.63085
Blida,Blida,DZ,Algeria,,182447,Africa/Algiers,36.47004,2.8277
Tiaret,Tiaret,DZ,Algeria,,178915,Africa/Algiers,35.37103,1.31699
Chlef,Chlef,DZ,Algeria,,178616,Africa/Algiers,36.16525,1.33452
Bordj Bou Arréridj,BordjBouArreridj,DZ,Algeria,,168346,Africa/Algiers,36.07389,4.76139
Ech Chettia,Ech Chettia,DZ,Algeria,,167955,Africa/Algiers,36.19591,1.25537
Bejaïa,Bejaia,DZ,Algeria,,164103,Africa/Algiers,36.75587,5.08433
Skikda,Skikda,DZ,Algeria,,162702,Africa/Algiers,36.87617,6.90921
El Achir,El Achir,DZ,Algeria,,158333,Africa/Algiers,36.06386,4.62744
Souk Ahras,Souk Ahras,DZ,Algeria,,156745,Africa/Algiers,36.28639,7.95111
Djelfa,Djelfa,DZ,Algeria,,154265,Africa/Algiers,34.67279,3.263
Mascara,Mascara,DZ,Algeria,,150000,Africa/Algiers,35.39664,0.14027
Jijel,Jijel,DZ,Algeria,,148000,Africa/Algiers,36.821,5.76352
Médéa,Medea,DZ,Algeria,,147707,Africa/Algiers,36.26417,2.75393
District of Taher,District of Taher,DZ,Algeria,,147612,Africa/Algiers,36.772,5.8982
Tizi Ouzou,Tizi Ouzou,DZ,Algeria,,144000,Africa/Algiers,36.71182,4.04591
Béchar,Bechar,DZ,Algeria,,143382,Africa/Algiers,31.61667,-2.21667
El Oued,El Oued,DZ,Algeria,,134699,Africa/Algiers,33.35608,6.86319
Tlemcen,Tlemcen,DZ,Algeria,,132341,Africa/Algiers,34.87833,-1.315
Relizane,Relizane,DZ,Algeria,,130094,Africa/Algiers,35.73734,0.55599
Mostaganem,Mostaganem,DZ,Algeria,,130000,Africa/Algiers,35.93115,0.08918
Ouargla,Ouargla,DZ,Algeria,,129402,Africa/Algiers,31.94932,5.32502
El Eulma,El Eulma,DZ,Algeria,,128351,Africa/Algiers,36.15281,5.69016
Saïda,Saida,DZ,Algeria,,127497,Africa/Algiers,34.83033,0.15171
Guelma,Guelma,DZ,Algeria,,123590,Africa/Algiers,36.46214,7.42608
Bordj el Kiffan,Bordj el Kiffan,DZ,Algeria,,123246,Africa/Algiers,36.74871,3.19249
Aïn Oussera,Ain Oussera,DZ,Algeria,,118687,Africa/Algiers,35.45139,2.90583
Khenchela,Khenchela,DZ,Algeria,,117000,Africa/Algiers,35.43583,7.14333
Laghouat,Laghouat,DZ,Algeria,,113872,Africa/Algiers,33.8,2.86514
Aïn Beïda,Ain Beida,DZ,Algeria,,105765,Africa/Algiers,35.79639,7.39278
Baraki,Baraki,DZ,Algeria,,105402,Africa/Algiers,36.66655,3.09606
Oum el Bouaghi,Oum el Bouaghi,DZ,Algeria,,100821,Africa/Algiers,35.87541,7.11353
M’sila,M'sila,DZ,Algeria,,100000,Africa/Algiers,35.70889,4.53722
Messaad,Messaad,DZ,Algeria,,99485,Africa/Algiers,34.15429,3.50309
Barika,Barika,DZ,Algeria,,98846,Africa/Algiers,35.38901,5.36584
Ghardaïa,Ghardaia,DZ,Algeria,,93423,Africa/Algiers,32.49094,3.67347
Beni Mered,Beni Mered,DZ,Algeria,,92749,Africa/Algiers,36.52389,2.86131
Aflou,Aflou,DZ,Algeria,,84683,Africa/Algiers,34.11279,2.10228
El Khroub,El Khroub,DZ,Algeria,,83746,Africa/Algiers,36.26333,6.69361
Rouissat,Rouissat,DZ,Algeria,,80784,Africa/Algiers,31.92427,5.35018
Berrouaghia,Berrouaghia,DZ,Algeria,,80573,Africa/Algiers,36.13516,2.91085
Ksar el Boukhari,Ksar el Boukhari,DZ,Algeria,,77166,Africa/Algiers,35.88889,2.74905
Khemis Miliana,Khemis Miliana,DZ,Algeria,,75865,Africa/Algiers,36.26104,2.22015
Azzaba,Azzaba,DZ,Algeria,,75317,Africa/Algiers,36.73944,7.10528
Tamanrasset,Tamanrasset,DZ,Algeria,,73128,Africa/Algiers,22.785,5.52278
Aïn Touta,Ain Touta,DZ,Algeria,,72280,Africa/Algiers,35.37675,5.90001
Cheria,Cheria,DZ,Algeria,,72095,Africa/Algiers,35.27306,7.75194
Birkhadem,Birkhadem,DZ,Algeria,,71722,Africa/Algiers,36.71499,3.05002
Chelghoum el Aïd,Chelghoum el Aid,DZ,Algeria,,71660,Africa/Algiers,36.16286,6.16651
Sidi Aïssa,Sidi Aissa,DZ,Algeria,,69740,Africa/Algiers,35.88548,3.77236
Larbaâ,Larbaa,DZ,Algeria,,69298,Africa/Algiers,36.56471,3.15434
Mila,Mila,DZ,Algeria,,68831,Africa/Algiers,36.45028,6.26444
Bir el Ater,Bir el Ater,DZ,Algeria,,68703,Africa/Algiers,34.74488,8.06024
Sougueur,Sougueur,DZ,Algeria,,68654,Africa/Algiers,35.18568,1.49612
Aïn Fakroun,Ain Fakroun,DZ,Algeria,,68433,Africa/Algiers,35.97108,6.87374
Tolga,Tolga,DZ,Algeria,,68246,Africa/Algiers,34.72224,5.37845
Es Senia,Es Senia,DZ,Algeria,,68084,Africa/Algiers,35.64779,-0.62397
Bir el Djir,Bir el Djir,DZ,Algeria,,68032,Africa/Algiers,35.72,-0.545
Akbou,Akbou,DZ,Algeria,,66654,Africa/Algiers,36.4575,4.53494
Besbes,Besbes,DZ,Algeria,,66287,Africa/Algiers,36.70222,7.84722
El Bayadh,El Bayadh,DZ,Algeria,,64632,Africa/Algiers,33.68318,1.01927
Sidi Khaled,Sidi Khaled,DZ,Algeria,,64476,Africa/Algiers,34.387,4.98785
Aïn Sefra,Ain Sefra,DZ,Algeria,,63420,Africa/Algiers,32.75,-0.58333
Frenda,Frenda,DZ,Algeria,,63319,Africa/Algiers,35.06544,1.04945
Bougara,Bougara,DZ,Algeria,,63155,Africa/Algiers,36.54178,3.081
Hamma Bouziane,Hamma Bouziane,DZ,Algeria,,63012,Africa/Algiers,36.41205,6.59603
Reguiba,Reguiba,DZ,Algeria,,62185,Africa/Algiers,33.56391,6.70326
Tissemsilt,Tissemsilt,DZ,Algeria,,61155,Africa/Algiers,35.60722,1.81081
Meftah,Meftah,DZ,Algeria,,59990,Africa/Algiers,36.6204,3.22248
Oued Rhiou,Oued Rhiou,DZ,Algeria,,59864,Africa/Algiers,35.96124,0.91896
Boufarik,Boufarik,DZ,Algeria,,59742,Africa/Algiers,36.57413,2.91214
Sig,Sig,DZ,Algeria,,58877,Africa/Algiers,35.52832,-0.19369
Ksar Chellala,Ksar Chellala,DZ,Algeria,,58478,Africa/Algiers,35.21222,2.31889
Sidi Moussa,Sidi Moussa,DZ,Algeria,,57928,Africa/Algiers,36.60637,3.08783
Aïn Temouchent,Ain Temouchent,DZ,Algeria,,57354,Africa/Algiers,35.29749,-1.14037
Râs el Oued,Ras el Oued,DZ,Algeria,,56726,Africa/Algiers,35.9441,5.03107
Lakhdaria,Lakhdaria,DZ,Algeria,,56719,Africa/Algiers,36.56463,3.5933
Drean,Drean,DZ,Algeria,,55147,Africa/Algiers,36.68482,7.75111
Reghaïa,Reghaia,DZ,Algeria,,54962,Africa/Algiers,36.73587,3.34018
Boghni,Boghni,DZ,Algeria,,54666,Africa/Algiers,36.54222,3.95306
Dar Chioukh,Dar Chioukh,DZ,Algeria,,54022,Africa/Algiers,34.89638,3.48543
Sedrata,Sedrata,DZ,Algeria,,53318,Africa/Algiers,36.12868,7.53376
Hassi Messaoud,Hassi Messaoud,DZ,Algeria,,53000,Africa/Algiers,31.68041,6.07286
Djamaa,Djamaa,DZ,Algeria,,52882,Africa/Algiers,33.53388,5.99306
Bouïra,Bouira,DZ,Algeria,,52500,Africa/Algiers,36.37489,3.902
Mansoûra,Mansoura,DZ,Algeria,,52285,Africa/Algiers,34.86158,-1.33935
Aïn Defla,Ain Defla,DZ,Algeria,,52276,Africa/Algiers,36.26405,1.9679
Telerghma,Telerghma,DZ,Algeria,,51708,Africa/Algiers,36.11653,6.35434
Remchi,Remchi,DZ,Algeria,,51224,Africa/Algiers,35.06196,-1.43362
Birine,Birine,DZ,Algeria,,51209,Africa/Algiers,35.635,3.225
Sour el Ghozlane,Sour el Ghozlane,DZ,Algeria,,50204,Africa/Algiers,36.14766,3.69123
Metlili Chaamba,Metlili Chaamba,DZ,Algeria,,50117,Africa/Algiers,32.26667,3.63333
Luanda,Luanda,AO,Angola,,2776168,Africa/Luanda,-8.83682,13.23432
N’dalatando,N'dalatando,AO,Angola,,383100,Africa/Luanda,-9.29782,14.91162
Huambo,Huambo,AO,Angola,,226145,Africa/Luanda,-12.77611,15.73917
Lobito,Lobito,AO,Angola,,207932,Africa/Luanda,-12.3644,13.53601
Benguela,Benguela,AO,Angola,,151226,Africa/Luanda,-12.57626,13.40547
Cuito,Cuito,AO,Angola,,113624,Africa/Luanda,-12.38333,16.93333
Lubango,Lubango,AO,Angola,,102541,Africa/Luanda,-14.91717,13.4925
Malanje,Malanje,AO,Angola,,87046,Africa/Luanda,-9.54015,16.34096
Moçâmedes,Mocamedes,AO,Angola,,80149,Africa/Luanda,-15.19611,12.15222
Soio,Soio,AO,Angola,,67491,Africa/Luanda,-6.1349,12.36894
Cabinda,Cabinda,AO,Angola,,66020,Africa/Luanda,-5.55,12.2
Uíge,Uige,AO,Angola,,60008,Africa/Luanda,-7.60874,15.06131
Buenos Aires,Buenos Aires,AR,Argentina,,13076300,America/Argentina/Buenos_Aires,-34.61315,-58.37723
Córdoba,Cordoba,AR,Argentina,,1428214,America/Argentina/Cordoba,-31.4135,-64.18105
Rosario,Rosario,AR,Argentina,,1173533,America/Argentina/Cordoba,-32.94682,-60.63932
Mendoza,Mendoza,AR,Argentina,,876884,America/Argentina/Mendoza,-32.89084,-68.82717
San Miguel de Tucumán,San Miguel de Tucuman,AR,Argentina,,781023,America/Argentina/Tucuman,-26.82414,-65.2226
La Plata,La Plata,AR,Argentina,,694167,America/Argentina/Buenos_Aires,-34.92145,-57.95453
Mar del Plata,Mar del Plata,AR,Argentina,,553935,America/Argentina/Buenos_Aires,-38.00042,-57.5562
Salta,Salta,AR,Argentina,,512686,America/Argentina/Salta,-24.7859,-65.41166
Santa Fe,Santa Fe,AR,Argentina,,489505,America/Argentina/Cordoba,-31.64881,-60.70868
San Juan,San Juan,AR,Argentina,,447048,America/Argentina/San_Juan,-31.5375,-68.53639
Resistencia,Resistencia,AR,Argentina,,387158,America/Argentina/Cordoba,-27.46056,-58.98389
Santiago del Estero,Santiago del Estero,AR,Argentina,,354692,America/Argentina/Cordoba,-27.79511,-64.26149
Corrientes,Corrientes,AR,Argentina,,339067,America/Argentina/Cordoba,-27.46784,-58.8344
Posadas,Posadas,AR,Argentina,,323739,America/Argentina/Cordoba,-27.36708,-55.89608
Morón,Moron,AR,Argentina,,319934,America/Argentina/Buenos_Aires,-34.6509,-58.61956
San Salvador de Jujuy,San Salvador de Jujuy,AR,Argentina,,305891,America/Argentina/Jujuy,-24.19457,-65.29712
Bahía Blanca,Bahia Blanca,AR,Argentina,,276546,America/Argentina/Buenos_Aires,-38.71959,-62.27243
Paraná,Parana,AR,Argentina,,262295,America/Argentina/Cordoba,-31.73271,-60.52897
Merlo,Merlo,AR,Argentina,,244168,America/Argentina/Buenos_Aires,-34.66627,-58.72927
Neuquén,Neuquen,AR,Argentina,,242092,America/Argentina/Salta,-38.95161,-68.0591
José C. Paz,Jose C. Paz,AR,Argentina,,230208,America/Argentina/Buenos_Aires,-34.51541,-58.76813
Quilmes,Quilmes,AR,Argentina,,230000,America/Argentina/Buenos_Aires,-34.72904,-58.26374
Pilar,Pilar,AR,Argentina,,226517,America/Argentina/Buenos_Aires,-34.45866,-58.9142
Formosa,Formosa,AR,Argentina,,221383,America/Argentina/Cordoba,-26.18489,-58.17313
Catamarca,Catamarca,AR,Argentina,,188812,America/Argentina/Catamarca,-28.46957,-65.78524
San Luis,San Luis,AR,Argentina,,183982,America/Argentina/San_Luis,-33.29501,-66.33563
Berazategui,Berazategui,AR,Argentina,,167498,America/Argentina/Buenos_Aires,-34.76531,-58.21278
La Rioja,La Rioja,AR,Argentina,,162620,America/Argentina/La_Rioja,-29.41105,-66.85067
San Miguel,San Miguel,AR,Argentina,,157532,America/Argentina/Buenos_Aires,-34.54335,-58.71229
Río Cuarto,Rio Cuarto,AR,Argentina,,153757,America/Argentina/Cordoba,-33.13067,-64.34992
Balvanera,Balvanera,AR,Argentina,,152198,America/Argentina/Buenos_Aires,-34.61032,-58.39766
Concordia,Concordia,AR,Argentina,,145210,America/Argentina/Cordoba,-31.39296,-58.02089
Comodoro Rivadavia,Comodoro Rivadavia,AR,Argentina,,140850,America/Argentina/Catamarca,-45.86413,-67.49656
Belgrano,Belgrano,AR,Argentina,,138942,America/Argentina/Buenos_Aires,-34.5627,-58.45829
San Nicolás de los Arroyos,San Nicolas de los Arroyos,AR,Argentina,,127742,America/Argentina/Buenos_Aires,-33.33425,-60.2108
Villa Lugano,Villa Lugano,AR,Argentina,,114000,America/Argentina/Buenos_Aires,-34.67907,-58.47263
Santa Rosa,Santa Rosa,AR,Argentina,,111424,America/Argentina/Salta,-36.61667,-64.28333
San Rafael,San Rafael,AR,Argentina,,109163,America/Argentina/Mendoza,-34.61772,-68.33007
Tandil,Tandil,AR,Argentina,,104325,America/Argentina/Buenos_Aires,-37.32167,-59.13316
Villa Mercedes,Villa Mercedes,AR,Argentina,,96781,America/Argentina/San_Luis,-33.67571,-65.45783
San Carlos de Bariloche,San Carlos de Bariloche,AR,Argentina,,95394,America/Argentina/Salta,-41.14557,-71.30822
Trelew,Trelew,AR,Argentina,,93442,America/Argentina/Catamarca,-43.24895,-65.30505
Villa María,Villa Maria,AR,Argentina,,92453,America/Argentina/Cordoba,-32.40751,-63.24016
Reconquista,Reconquista,AR,Argentina,,90184,America/Argentina/Cordoba,-29.15,-59.65
Zárate,Zarate,AR,Argentina,,88781,America/Argentina/Buenos_Aires,-34.09814,-59.02858
Rafaela,Rafaela,AR,Argentina,,88713,America/Argentina/Cordoba,-31.25033,-61.4867
Pergamino,Pergamino,AR,Argentina,,87652,America/Argentina/Buenos_Aires,-33.88995,-60.57357
Olavarría,Olavarria,AR,Argentina,,86320,America/Argentina/Buenos_Aires,-36.89272,-60.32254
Río Gallegos,Rio Gallegos,AR,Argentina,,85700,America/Argentina/Rio_Gallegos,-51.62261,-69.21813
Junín,Junin,AR,Argentina,,85007,America/Argentina/Buenos_Aires,-34.58382,-60.94332
San Martín,San Martin,AR,Argentina,,82549,America/Argentina/Mendoza,-33.08103,-68.46814
Presidencia Roque Sáenz Peña,Presidencia Roque Saenz Pena,AR,Argentina,,81879,America/Argentina/Cordoba,-26.78522,-60.43876
Luján,Lujan,AR,Argentina,,81749,America/Argentina/Buenos_Aires,-34.57028,-59.105
Campana,Campana,AR,Argentina,,81612,America/Argentina/Buenos_Aires,-34.16327,-58.95919
Necochea,Necochea,AR,Argentina,,80478,America/Argentina/Buenos_Aires,-38.5545,-58.73961
Gualeguaychú,Gualeguaychu,AR,Argentina,,78676,America/Argentina/Cordoba,-33.00937,-58.51722
Barracas,Barracas,AR,Argentina,,77474,America/Argentina/Buenos_Aires,-34.64966,-58.38341
Cipolletti,Cipolletti,AR,Argentina,,75078,America/Argentina/Salta,-38.93392,-67.99032
Gobernador Gálvez,Gobernador Galvez,AR,Argentina,,74650,America/Argentina/Cordoba,-33.03016,-60.64045
San Ramón de la Nueva Orán,San Ramon de la Nueva Oran,AR,Argentina,,74059,America/Argentina/Salta,-23.13705,-64.32426
Chimbas,Chimbas,AR,Argentina,,73829,America/Argentina/San_Juan,-31.48333,-68.53333
General Roca,General Roca,AR,Argentina,,73212,America/Argentina/Salta,-39.03333,-67.58333
Venado Tuerto,Venado Tuerto,AR,Argentina,,72340,America/Argentina/Cordoba,-33.74556,-61.96885
Goya,Goya,AR,Argentina,,70245,America/Argentina/Cordoba,-29.13995,-59.26343
Villa Carlos Paz,Villa Carlos Paz,AR,Argentina,,69451,America/Argentina/Cordoba,-31.42414,-64.49778
Concepción del Uruguay,Concepcion del Uruguay,AR,Argentina,,67895,America/Argentina/Cordoba,-32.48463,-58.23217
Don Torcuato,Don Torcuato,AR,Argentina,,64867,America/Argentina/Buenos_Aires,-34.49459,-58.62729
Puerto Madryn,Puerto Madryn,AR,Argentina,,64555,America/Argentina/Catamarca,-42.7692,-65.03851
Tartagal,Tartagal,AR,Argentina,,60819,America/Argentina/Salta,-22.51637,-63.80131
Hurlingham,Hurlingham,AR,Argentina,,60000,America/Argentina/Buenos_Aires,-34.5904,-58.62904
Santo Tomé,Santo Tome,AR,Argentina,,59072,America/Argentina/Cordoba,-31.66274,-60.7653
San Francisco,San Francisco,AR,Argentina,,59062,America/Argentina/Cordoba,-31.42797,-62.08266
San Pedro de Jujuy,San Pedro de Jujuy,AR,Argentina,,58430,America/Argentina/Jujuy,-24.23127,-64.86614
Ushuaia,Ushuaia,AR,Argentina,,58028,America/Argentina/Ushuaia,-54.81084,-68.31591
Punta Alta,Punta Alta,AR,Argentina,,57209,America/Argentina/Buenos_Aires,-38.87588,-62.07359
General Pico,General Pico,AR,Argentina,,57029,America/Argentina/Salta,-35.65662,-63.75682
Colegiales,Colegiales,AR,Argentina,,57000,America/Argentina/Buenos_Aires,-34.57365,-58.44924
Oberá,Obera,AR,Argentina,,56528,America/Argentina/Cordoba,-27.48706,-55.11994
Chivilcoy,Chivilcoy,AR,Argentina,,54514,America/Argentina/Buenos_Aires,-34.89566,-60.01667
Puerto Eldorado,Puerto Eldorado,AR,Argentina,,54189,America/Argentina/Cordoba,-26.40843,-54.69463
Azul,Azul,AR,Argentina,,53941,America/Argentina/Buenos_Aires,-36.77698,-59.85854
Río Tercero,Rio Tercero,AR,Argentina,,53389,America/Argentina/Cordoba,-32.17301,-64.11405
Los Polvorines,Los Polvorines,AR,Argentina,,53354,America/Argentina/Buenos_Aires,-34.50316,-58.70596
Mercedes,Mercedes,AR,Argentina,,52949,America/Argentina/Buenos_Aires,-34.65145,-59.43068
Río Grande,Rio Grande,AR,Argentina,,52681,America/Argentina/Ushuaia,-53.78769,-67.70946
Barranqueras,Barranqueras,AR,Argentina,,50823,America/Argentina/Cordoba,-27.48132,-58.93925
Yerba Buena,Yerba Buena,AR,Argentina,,50783,America/Argentina/Tucuman,-26.81667,-65.31667
Yerevan,Yerevan,AM,Armenia,,1093485,Asia/Yerevan,40.18111,44.51361
Gyumri,Gyumri,AM,Armenia,,148381,Asia/Yerevan,40.7942,43.84528
Vanadzor,Vanadzor,AM,Armenia,,101098,Asia/Yerevan,40.80456,44.4939
Sydney,Sydney,AU,Australia,,4627345,Australia/Sydney,-33.86785,151.20732
Melbourne,Melbourne,AU,Australia,,4246375,Australia/Melbourne,-37.814,144.96332
Brisbane,Brisbane,AU,Australia,,2189878,Australia/Brisbane,-27.46794,153.02809
Perth,Perth,AU,Australia,,1896548,Australia/Perth,-31.95224,115.8614
Adelaide,Adelaide,AU,Australia,,1225235,Australia/Adelaide,-34.92866,138.59863
Gold Coast,Gold Coast,AU,Australia,,640778,Australia/Brisbane,-28.00029,153.43088
Canberra,Canberra,AU,Australia,,367752,Australia/Sydney,-35.28346,149.12807
Logan City,Logan City,AU,Australia,,326615,Australia/Brisbane,-27.63917,153.10944
Newcastle,Newcastle,AU,Australia,,308308,Australia/Sydney,-32.92953,151.7801
Wollongong,Wollongong,AU,Australia,,292190,Australia/Sydney,-34.424,150.89345
Geelong,Geelong,AU,Australia,,268984,Australia/Melbourne,-38.14711,144.36069
Hobart,Hobart,AU,Australia,,216656,Australia/Hobart,-42.87936,147.32941
Townsville,Townsville,AU,Australia,,180820,Australia/Brisbane,-19.26639,146.80569
Cairns,Cairns,AU,Australia,,153075,Australia/Brisbane,-16.92366,145.76613
Toowoomba,Toowoomba,AU,Australia,,140303,Australia/Brisbane,-27.56056,151.95386
Darwin,Darwin,AU,Australia,,129062,Australia/Darwin,-12.46113,130.84185
Ballarat,Ballarat,AU,Australia,,116201,Australia/Melbourne,-37.56622,143.84957
Rockingham,Rockingham,AU,Australia,,108022,Australia/Perth,-32.27682,115.72978
Launceston,Launceston,AU,Australia,,106153,Australia/Hobart,-41.43876,147.13467
Bendigo,Bendigo,AU,Australia,,100617,Australia/Melbourne,-36.75818,144.28024
Mandurah,Mandurah,AU,Australia,,83294,Australia/Perth,-32.5269,115.7217
Rockhampton,Rockhampton,AU,Australia,,78592,Australia/Brisbane,-23.38032,150.50595
Mackay,Mackay,AU,Australia,,74219,Australia/Brisbane,-21.15345,149.16554
Bunbury,Bunbury,AU,Australia,,68248,Australia/Perth,-33.32711,115.64137
Maitland,Maitland,AU,Australia,,67132,Australia/Sydney,-32.73308,151.5574
Point Cook,Point Cook,AU,Australia,,66781,Australia/Melbourne,-37.91482,144.75088
Craigieburn,Craigieburn,AU,Australia,,65178,Australia/Melbourne,-37.6,144.95
Adelaide Hills,Adelaide Hills,AU,Australia,,60394,Australia/Adelaide,-34.91119,138.70735
Melbourne City Centre,Melbourne City Centre,AU,Australia,,60057,Australia/Melbourne,-37.81501,144.96657
Pakenham,Pakenham,AU,Australia,,54118,Australia/Melbourne,-38.07018,145.47411
Hervey Bay,Hervey Bay,AU,Australia,,52230,Australia/Brisbane,-25.28762,152.76936
Shepparton,Shepparton,AU,Australia,,51631,Australia/Melbourne,-36.38047,145.39867
Reservoir,Reservoir,AU,Australia,,51096,Australia/Melbourne,-37.71667,145
Berwick,Berwick,AU,Australia,,50298,Australia/Melbourne,-38.03333,145.35
Bundaberg,Bundaberg,AU,Australia,,50148,Australia/Brisbane,-24.86621,152.3479
Werribee,Werribee,AU,Australia,,50027,Australia/Melbourne,-37.9,144.66667
Vienna,Vienna,AT,Austria,,1691468,Europe/Vienna,48.20849,16.37208
Graz,Graz,AT,Austria,,222326,Europe/Vienna,47.06667,15.45
Linz,Linz,AT,Austria,,204846,Europe/Vienna,48.30639,14.28611
Favoriten,Favoriten,AT,Austria,,201882,Europe/Vienna,48.16116,16.38233
Donaustadt,Donaustadt,AT,Austria,,187007,Europe/Vienna,48.2333,16.46002
Floridsdorf,Floridsdorf,AT,Austria,,162779,Europe/Vienna,48.25,16.4
Salzburg,Salzburg,AT,Austria,,153377,Europe/Vienna,47.79941,13.04399
Innsbruck,Innsbruck,AT,Austria,,132493,Europe/Vienna,47.26266,11.39454
Ottakring,Ottakring,AT,Austria,,104627,Europe/Vienna,48.21667,16.3
Simmering,Simmering,AT,Austria,,101420,Europe/Vienna,48.18333,16.43333
Meidling,Meidling,AT,Austria,,97624,Europe/Vienna,48.16667,16.33333
Klagenfurt am Wörthersee,Klagenfurt am Woerthersee,AT,Austria,,90610,Europe/Vienna,46.62472,14.30528
Villach,Villach,AT,Austria,,58882,Europe/Vienna,46.61028,13.85583
Hernals,Hernals,AT,Austria,,57546,Europe/Vienna,48.23333,16.26667
Hietzing,Hietzing,AT,Austria,,54265,Europe/Vienna,48.18623,16.2965
Baku,Baku,AZ,Azerbaijan,,1116513,Asia/Baku,40.37767,49.89201
Ganja,Ganja,AZ,Azerbaijan,,313300,Asia/Baku,40.68278,46.36056
Sumqayıt,Sumqayit,AZ,Azerbaijan,,265150,Asia/Baku,40.58972,49.66861
Lankaran,Lankaran,AZ,Azerbaijan,,240300,Asia/Baku,38.75428,48.85062
Yevlakh,Yevlakh,AZ,Azerbaijan,,127400,Asia/Baku,40.61832,47.15014
Mingelchaur,Mingelchaur,AZ,Azerbaijan,,95453,Asia/Baku,40.76395,47.05953
Saatlı,Saatli,AZ,Azerbaijan,,87000,Asia/Baku,39.93214,48.36892
Qaraçuxur,Qaracuxur,AZ,Azerbaijan,,72989,Asia/Baku,40.39667,49.97361
Şirvan,Sirvan,AZ,Azerbaijan,,70220,Asia/Baku,39.93778,48.929
Bakıxanov,Bakixanov,AZ,Azerbaijan,,66686,Asia/Baku,40.41894,49.96693
Nakhchivan,Nakhchivan,AZ,Azerbaijan,,64754,Asia/Baku,39.20889,45.41222
Sheki,Sheki,AZ,Azerbaijan,,63000,Asia/Baku,41.19194,47.17056
Xankandi,Xankandi,AZ,Azerbaijan,,53100,Asia/Baku,39.8177,46.7528
Nassau,Nassau,BS,Bahamas,,227940,America/Nassau,25.05823,-77.34306
Manama,Manama,BH,Bahrain,,147074,Asia/Bahrain,26.22787,50.58565
Al Muharraq,Al Muharraq,BH,Bahrain,,97458,Asia/Bahrain,26.25722,50.61194
Ar Rifā‘,Ar Rifa',BH,Bahrain,,79550,Asia/Bahrain,26.13,50.555
Dār Kulayb,Dar Kulayb,BH,Bahrain,,65466,Asia/Bahrain,26.06861,50.50389
Madīnat Ḩamad,Madinat Hamad,BH,Bahrain,,52718,Asia/Bahrain,26.11528,50.50694
Dhaka,Dhaka,BD,Bangladesh,,10356500,Asia/Dhaka,23.7104,90.40744
Chattogram,Chattogram,BD,Bangladesh,,3920222,Asia/Dhaka,22.3384,91.83168
Khulna,Khulna,BD,Bangladesh,,1342339,Asia/Dhaka,22.80979,89.56439
Rājshāhi,Rajshahi,BD,Bangladesh,,763580,Asia/Dhaka,24.374,88.60114
Comilla,Comilla,BD,Bangladesh,,389411,Asia/Dhaka,23.46186,91.18503
Shibganj,Shibganj,BD,Bangladesh,,378701,Asia/Dhaka,25.00146,89.32266
Natore,Natore,BD,Bangladesh,,369138,Asia/Dhaka,24.41112,88.98673
Rangpur,Rangpur,BD,Bangladesh,,343122,Asia/Dhaka,25.74664,89.25166
Tungi,Tungi,BD,Bangladesh,,337579,Asia/Dhaka,23.89154,90.40232
Narsingdi,Narsingdi,BD,Bangladesh,,281080,Asia/Dhaka,23.92298,90.71768
Bagerhat,Bagerhat,BD,Bangladesh,,266388,Asia/Dhaka,22.65657,89.79123
Cox’s Bāzār,Cox's Bazar,BD,Bangladesh,,253788,Asia/Dhaka,21.43973,92.00955
Jessore,Jessore,BD,Bangladesh,,243987,Asia/Dhaka,23.16971,89.21371
Nāgarpur,Nagarpur,BD,Bangladesh,,238422,Asia/Dhaka,24.05783,89.87696
Sylhet,Sylhet,BD,Bangladesh,,237000,Asia/Dhaka,24.89904,91.87198
Mymensingh,Mymensingh,BD,Bangladesh,,225126,Asia/Dhaka,24.75636,90.40646
Nārāyanganj,Narayanganj,BD,Bangladesh,,223622,Asia/Dhaka,23.61352,90.50298
Bogra,Bogra,BD,Bangladesh,,210000,Asia/Dhaka,24.85098,89.37108
Dinājpur,Dinajpur,BD,Bangladesh,,206234,Asia/Dhaka,25.62745,88.63779
Barishal,Barishal,BD,Bangladesh,,202242,Asia/Dhaka,22.70497,90.37013
Saidpur,Saidpur,BD,Bangladesh,,199422,Asia/Dhaka,25.77769,88.89169
Pār Naogaon,Par Naogaon,BD,Bangladesh,,192464,Asia/Dhaka,24.80418,88.94875
Pābna,Pabna,BD,Bangladesh,,186781,Asia/Dhaka,24.00644,89.2372
Paltan,Paltan,BD,Bangladesh,,184492,Asia/Dhaka,23.73625,90.41426
Tāngāil,Tangail,BD,Bangladesh,,180144,Asia/Dhaka,24.24984,89.91655
Jamālpur,Jamalpur,BD,Bangladesh,,167900,Asia/Dhaka,24.91965,89.94812
Puthia,Puthia,BD,Bangladesh,,159406,Asia/Dhaka,24.36537,88.83431
Nawābganj,Nawabganj,BD,Bangladesh,,142361,Asia/Dhaka,24.59025,88.27444
Kushtia,Kushtia,BD,Bangladesh,,135724,Asia/Dhaka,23.9028,89.11943
Sonārgaon,Sonargaon,BD,Bangladesh,,130000,Asia/Dhaka,23.65,90.61667
Sātkhira,Satkhira,BD,Bangladesh,,128918,Asia/Dhaka,22.70817,89.07185
Sirajganj,Sirajganj,BD,Bangladesh,,127481,Asia/Dhaka,24.45771,89.70802
Farīdpur,Faridpur,BD,Bangladesh,,112187,Asia/Dhaka,23.60612,89.84064
Sherpur,Sherpur,BD,Bangladesh,,107419,Asia/Dhaka,25.01881,90.01751
Bhairab Bāzār,Bhairab Bazar,BD,Bangladesh,,105457,Asia/Dhaka,24.0524,90.9764
Shāhzādpur,Shahzadpur,BD,Bangladesh,,102420,Asia/Dhaka,24.17687,89.5988
Bhola,Bhola,BD,Bangladesh,,99079,Asia/Dhaka,22.68759,90.64403
Azimpur,Azimpur,BD,Bangladesh,,96641,Asia/Dhaka,23.7298,90.3854
Kishorganj,Kishorganj,BD,Bangladesh,,90690,Asia/Dhaka,24.43944,90.78291
Bibir Hat,Bibir Hat,BD,Bangladesh,,89030,Asia/Dhaka,22.68347,91.79058
Habiganj,Habiganj,BD,Bangladesh,,88760,Asia/Dhaka,24.38044,91.41299
Madaripur,Madaripur,BD,Bangladesh,,84789,Asia/Dhaka,23.17097,90.20935
Feni,Feni,BD,Bangladesh,,84028,Asia/Dhaka,23.0144,91.3966
Lākshām,Laksham,BD,Bangladesh,,82290,Asia/Dhaka,23.24018,91.12143
Ishurdi,Ishurdi,BD,Bangladesh,,81995,Asia/Dhaka,24.12858,89.06573
Sarishābāri,Sarishabari,BD,Bangladesh,,81325,Asia/Dhaka,24.75127,89.83126
Netrakona,Netrakona,BD,Bangladesh,,79016,Asia/Dhaka,24.88352,90.72898
Joypur Hāt,Joypur Hat,BD,Bangladesh,,73068,Asia/Dhaka,25.10147,89.02734
Thākurgaon,Thakurgaon,BD,Bangladesh,,71096,Asia/Dhaka,26.03097,88.46989
Pālang,Palang,BD,Bangladesh,,67652,Asia/Dhaka,23.21824,90.35076
Lalmonirhat,Lalmonirhat,BD,Bangladesh,,65127,Asia/Dhaka,25.91719,89.44595
Rāipur,Raipur,BD,Bangladesh,,64652,Asia/Dhaka,23.0391,90.76808
Tungipāra,Tungipara,BD,Bangladesh,,62210,Asia/Dhaka,22.89983,89.90326
Lakshmīpur,Lakshmipur,BD,Bangladesh,,61703,Asia/Dhaka,22.9443,90.83005
Maulavi Bāzār,Maulavi Bazar,BD,Bangladesh,,57441,Asia/Dhaka,24.48888,91.77075
Joymontop,Joymontop,BD,Bangladesh,,56000,Asia/Dhaka,23.78789,90.16472
Rāmganj,Ramganj,BD,Bangladesh,,55241,Asia/Dhaka,23.1006,90.84989
Narail,Narail,BD,Bangladesh,,55112,Asia/Dhaka,23.15509,89.49515
Pirojpur,Pirojpur,BD,Bangladesh,,54418,Asia/Dhaka,22.57965,89.97521
Sandwīp,Sandwip,BD,Bangladesh,,52152,Asia/Dhaka,22.51409,91.45491
Sātkania,Satkania,BD,Bangladesh,,52005,Asia/Dhaka,22.07639,92.04955
Patiya,Patiya,BD,Bangladesh,,51360,Asia/Dhaka,22.29543,91.979
Khagrachhari,Khagrachhari,BD,Bangladesh,,50364,Asia/Dhaka,23.10787,91.97007
Bridgetown,Bridgetown,BB,Barbados,,98511,America/Barbados,13.10732,-59.62021
Minsk,Minsk,BY,Belarus,,1742124,Europe/Minsk,53.9,27.56667
Homyel',Homyel',BY,Belarus,,480951,Europe/Minsk,52.4345,30.9754
Mahilyow,Mahilyow,BY,Belarus,,369200,Europe/Minsk,53.9168,30.3449
Vitebsk,Vitebsk,BY,Belarus,,342700,Europe/Minsk,55.1904,30.2049
Hrodna,Hrodna,BY,Belarus,,317365,Europe/Minsk,53.6884,23.8258
Brest,Brest,BY,Belarus,,300715,Europe/Minsk,52.09755,23.68775
Babruysk,Babruysk,BY,Belarus,,220517,Europe/Minsk,53.1384,29.2214
Baranovichi,Baranovichi,BY,Belarus,,168772,Europe/Minsk,53.1327,26.0139
Barysaw,Barysaw,BY,Belarus,,143919,Europe/Minsk,54.2279,28.505
Pinsk,Pinsk,BY,Belarus,,130777,Europe/Minsk,52.1229,26.0951
Orsha,Orsha,BY,Belarus,,125347,Europe/Minsk,54.5081,30.4172
Mazyr,Mazyr,BY,Belarus,,112137,Europe/Minsk,52.0495,29.2456
Navapolatsk,Navapolatsk,BY,Belarus,,108000,Europe/Minsk,55.5318,28.5987
Lida,Lida,BY,Belarus,,102700,Europe/Minsk,53.88333,25.29972
Salihorsk,Salihorsk,BY,Belarus,,101614,Europe/Minsk,52.7876,27.5415
Maladziečna,Maladziecna,BY,Belarus,,101300,Europe/Minsk,54.3167,26.854
Polatsk,Polatsk,BY,Belarus,,82258,Europe/Minsk,55.4879,28.7856
Zhlobin,Zhlobin,BY,Belarus,,73089,Europe/Minsk,52.8926,30.024
Svyetlahorsk,Svyetlahorsk,BY,Belarus,,71250,Europe/Minsk,52.6329,29.7389
Rechytsa,Rechytsa,BY,Belarus,,65400,Europe/Minsk,52.3617,30.3916
Slutsk,Slutsk,BY,Belarus,,62228,Europe/Minsk,53.0274,27.5597
Horad Zhodzina,Horad Zhodzina,BY,Belarus,,61007,Europe/Minsk,54.0985,28.3331
Slonim,Slonim,BY,Belarus,,51434,Europe/Minsk,53.0869,25.3163
Kobryn,Kobryn,BY,Belarus,,50691,Europe/Minsk,52.2138,24.3564
Brussels,Brussels,BE,Belgium,,1019022,Europe/Brussels,50.85045,4.34878
Antwerpen,Antwerpen,BE,Belgium,,459805,Europe/Brussels,51.22047,4.40026
Gent,Gent,BE,Belgium,,231493,Europe/Brussels,51.05,3.71667
Charleroi,Charleroi,BE,Belgium,,200132,Europe/Brussels,50.41136,4.44448
Liège,Liege,BE,Belgium,,182597,Europe/Brussels,50.63373,5.56749
Anderlecht,Anderlecht,BE,Belgium,,160553,Europe/Brussels,50.83619,4.31454
Schaerbeek,Schaerbeek,BE,Belgium,,132761,Europe/Brussels,50.86935,4.37737
Brugge,Brugge,BE,Belgium,,116709,Europe/Brussels,51.20892,3.22424
Namur,Namur,BE,Belgium,,106284,Europe/Brussels,50.4669,4.86746
Molenbeek-Saint-Jean,Molenbeek-Saint-Jean,BE,Belgium,,97037,Europe/Brussels,50.8499,4.31248
Leuven,Leuven,BE,Belgium,,92892,Europe/Brussels,50.87959,4.70093
Mons,Mons,BE,Belgium,,91277,Europe/Brussels,50.45413,3.95229
Ixelles,Ixelles,BE,Belgium,,86671,Europe/Brussels,50.83333,4.36667
Uccle,Uccle,BE,Belgium,,82929,Europe/Brussels,50.80225,4.33943
Deurne,Deurne,BE,Belgium,,78747,Europe/Brussels,51.22134,4.46595
Aalst,Aalst,BE,Belgium,,77534,Europe/Brussels,50.93604,4.0355
Mechelen,Mechelen,BE,Belgium,,77530,Europe/Brussels,51.02574,4.47762
La Louvière,La Louviere,BE,Belgium,,76668,Europe/Brussels,50.48657,4.18785
Kortrijk,Kortrijk,BE,Belgium,,73879,Europe/Brussels,50.82803,3.26487
Hasselt,Hasselt,BE,Belgium,,69222,Europe/Brussels,50.93106,5.33781
Ostend,Ostend,BE,Belgium,,69011,Europe/Brussels,51.21551,2.927
Sint-Niklaas,Sint-Niklaas,BE,Belgium,,69010,Europe/Brussels,51.16509,4.1437
Tournai,Tournai,BE,Belgium,,67721,Europe/Brussels,50.60715,3.38932
Genk,Genk,BE,Belgium,,63666,Europe/Brussels,50.965,5.50082
Seraing,Seraing,BE,Belgium,,60737,Europe/Brussels,50.58362,5.50115
Woluwe-Saint-Lambert,Woluwe-Saint-Lambert,BE,Belgium,,56584,Europe/Brussels,50.84389,4.42912
Forest,Forest,BE,Belgium,,56254,Europe/Brussels,50.81678,4.32775
Roeselare,Roeselare,BE,Belgium,,56016,Europe/Brussels,50.94653,3.12269
Verviers,Verviers,BE,Belgium,,52824,Europe/Brussels,50.58907,5.86241
Jette,Jette,BE,Belgium,,52490,Europe/Brussels,50.87309,4.33419
Mouscron,Mouscron,BE,Belgium,,52069,Europe/Brussels,50.74497,3.20639
Saint-Gilles,Saint-Gilles,BE,Belgium,,50221,Europe/Brussels,50.82763,4.34389
Belize City,Belize City,BZ,Belize,,61461,America/Belize,17.49952,-88.19756
Cotonou,Cotonou,BJ,Benin,,780000,Africa/Porto-Novo,6.36536,2.41833
Abomey-Calavi,Abomey-Calavi,BJ,Benin,,385755,Africa/Porto-Novo,6.44852,2.35566
Djougou,Djougou,BJ,Benin,,237040,Africa/Porto-Novo,9.70853,1.66598
Porto-Novo,Porto-Novo,BJ,Benin,,234168,Africa/Porto-Novo,6.49646,2.60359
Parakou,Parakou,BJ,Benin,,163753,Africa/Porto-Novo,9.33716,2.63031
Bohicon,Bohicon,BJ,Benin,,125092,Africa/Porto-Novo,7.17826,2.0667
Kandi,Kandi,BJ,Benin,,109701,Africa/Porto-Novo,11.13417,2.93861
Savé,Save,BJ,Benin,,97309,Africa/Porto-Novo,8.03424,2.4866
Lokossa,Lokossa,BJ,Benin,,86971,Africa/Porto-Novo,6.63869,1.71674
Ouidah,Ouidah,BJ,Benin,,83503,Africa/Porto-Novo,6.36307,2.08506
Abomey,Abomey,BJ,Benin,,82154,Africa/Porto-Novo,7.18286,1.99119
Natitingou,Natitingou,BJ,Benin,,80892,Africa/Porto-Novo,10.30416,1.37962
Nikki,Nikki,BJ,Benin,,69970,Africa/Porto-Novo,9.94009,3.21075
Thimphu,Thimphu,BT,Bhutan,,98676,Asia/Thimphu,27.46609,89.64191
La Paz,La Paz,BO,Bolivia,,2004652,America/La_Paz,-16.5,-68.15
Santa Cruz de la Sierra,Santa Cruz de la Sierra,BO,Bolivia,,1831434,America/La_Paz,-17.78629,-63.18117
Cochabamba,Cochabamba,BO,Bolivia,,841276,America/La_Paz,-17.3895,-66.1568
Sucre,Sucre,BO,Bolivia,,224838,America/La_Paz,-19.03332,-65.26274
Oruro,Oruro,BO,Bolivia,,208684,America/La_Paz,-17.98333,-67.15
Sacaba,Sacaba,BO,Bolivia,,180726,America/La_Paz,-17.39799,-66.03825
Quillacollo,Quillacollo,BO,Bolivia,,172405,America/La_Paz,-17.39228,-66.27838
Tarija,Tarija,BO,Bolivia,,159269,America/La_Paz,-21.53549,-64.72956
Potosí,Potosi,BO,Bolivia,,141251,America/La_Paz,-19.58361,-65.75306
Montero,Montero,BO,Bolivia,,88616,America/La_Paz,-17.33866,-63.2505
Viacha,Viacha,BO,Bolivia,,86218,America/La_Paz,-16.65,-68.3
Trinidad,Trinidad,BO,Bolivia,,84259,America/La_Paz,-14.83333,-64.9
Yacuiba,Yacuiba,BO,Bolivia,,82803,America/La_Paz,-22.01643,-63.67753
Riberalta,Riberalta,BO,Bolivia,,74014,America/La_Paz,-11.01026,-66.05257
Tiquipaya,Tiquipaya,BO,Bolivia,,62675,America/La_Paz,-17.33801,-66.21579
Vinto,Vinto,BO,Bolivia,,58739,America/La_Paz,-17.39141,-66.31681
Colcapirhua,Colcapirhua,BO,Bolivia,,52732,America/La_Paz,-17.3857,-66.23814
Sarajevo,Sarajevo,BA,Bosnia and Herzegovina,,696731,Europe/Sarajevo,43.84864,18.35644
Banja Luka,Banja Luka,BA,Bosnia and Herzegovina,,221106,Europe/Sarajevo,44.77842,17.19386
Zenica,Zenica,BA,Bosnia and Herzegovina,,164423,Europe/Sarajevo,44.20169,17.90397
Tuzla,Tuzla,BA,Bosnia and Herzegovina,,142486,Europe/Sarajevo,44.53842,18.66709
Mostar,Mostar,BA,Bosnia and Herzegovina,,104518,Europe/Sarajevo,43.34333,17.80806
Bihać,Bihac,BA,Bosnia and Herzegovina,,75641,Europe/Sarajevo,44.81694,15.87083
Gaborone,Gaborone,BW,Botswana,,208411,Africa/Gaborone,-24.65451,25.90859
Francistown,Francistown,BW,Botswana,,89979,Africa/Gaborone,-21.17,27.50778
Molepolole,Molepolole,BW,Botswana,,63248,Africa/Gaborone,-24.40659,25.49508
Selebi-Phikwe,Selebi-Phikwe,BW,Botswana,,53727,Africa/Gaborone,-21.97895,27.84296
São Paulo,Sao Paulo,BR,Brazil,,10021295,America/Sao_Paulo,-23.5475,-46.63611
Rio de Janeiro,Rio de Janeiro,BR,Brazil,,6023699,America/Sao_Paulo,-22.90642,-43.18223
Salvador,Salvador,BR,Brazil,,2711840,America/Bahia,-12.97111,-38.51083
Fortaleza,Fortaleza,BR,Brazil,,2400000,America/Fortaleza,-3.71722,-38.54306
Belo Horizonte,Belo Horizonte,BR,Brazil,,2373224,America/Sao_Paulo,-19.92083,-43.93778
Brasília,Brasilia,BR,Brazil,,2207718,America/Sao_Paulo,-15.77972,-47.92972
Curitiba,Curitiba,BR,Brazil,,1718421,America/Sao_Paulo,-25.42778,-49.27306
Manaus,Manaus,BR,Brazil,,1598210,America/Manaus,-3.10194,-60.025
Recife,Recife,BR,Brazil,,1478098,America/Recife,-8.05389,-34.88111
Belém,Belem,BR,Brazil,,1407737,America/Belem,-1.45583,-48.50444
Porto Alegre,Porto Alegre,BR,Brazil,,1372741,America/Sao_Paulo,-30.03283,-51.23019
Goiânia,Goiania,BR,Brazil,,1171195,America/Sao_Paulo,-16.67861,-49.25389
Guarulhos,Guarulhos,BR,Brazil,,1169577,America/Sao_Paulo,-23.46278,-46.53333
Campinas,Campinas,BR,Brazil,,1031554,America/Sao_Paulo,-22.90556,-47.06083
Nova Iguaçu,Nova Iguacu,BR,Brazil,,1002118,America/Sao_Paulo,-22.75917,-43.45111
Maceió,Maceio,BR,Brazil,,954991,America/Maceio,-9.66583,-35.73528
São Luís,Sao Luis,BR,Brazil,,917237,America/Fortaleza,-2.52972,-44.30278
Duque de Caxias,Duque de Caxias,BR,Brazil,,818329,America/Sao_Paulo,-22.78556,-43.31167
Natal,Natal,BR,Brazil,,763043,America/Fortaleza,-5.795,-35.20944
Teresina,Teresina,BR,Brazil,,744512,America/Fortaleza,-5.08917,-42.80194
São Bernardo do Campo,Sao Bernardo do Campo,BR,Brazil,,743372,America/Sao_Paulo,-23.69389,-46.565
Campo Grande,Campo Grande,BR,Brazil,,729151,America/Campo_Grande,-20.44278,-54.64639
Jaboatão,Jaboatao,BR,Brazil,,702621,America/Recife,-8.18028,-35.00139
Osasco,Osasco,BR,Brazil,,677856,America/Sao_Paulo,-23.5325,-46.79167
Santo André,Santo Andre,BR,Brazil,,662373,America/Sao_Paulo,-23.66389,-46.53833
João Pessoa,Joao Pessoa,BR,Brazil,,650883,America/Fortaleza,-7.115,-34.86306
Jaboatão dos Guararapes,Jaboatao dos Guararapes,BR,Brazil,,630008,America/Recife,-8.11278,-35.01472
Contagem,Contagem,BR,Brazil,,627123,America/Sao_Paulo,-19.93167,-44.05361
Ribeirão Preto,Ribeirao Preto,BR,Brazil,,619746,America/Sao_Paulo,-21.1775,-47.81028
Feira de Santana,Feira de Santana,BR,Brazil,,619609,America/Bahia,-12.26667,-38.96667
São José dos Campos,Sao Jose dos Campos,BR,Brazil,,613764,America/Sao_Paulo,-23.17944,-45.88694
Uberlândia,Uberlandia,BR,Brazil,,563536,America/Sao_Paulo,-18.91861,-48.27722
Sorocaba,Sorocaba,BR,Brazil,,558862,America/Sao_Paulo,-23.50167,-47.45806
Cuiabá,Cuiaba,BR,Brazil,,521934,America/Cuiaba,-15.59611,-56.09667
Aparecida de Goiânia,Aparecida de Goiania,BR,Brazil,,510770,America/Sao_Paulo,-16.82333,-49.24389
Aracaju,Aracaju,BR,Brazil,,490175,America/Maceio,-10.91111,-37.07167
Londrina,Londrina,BR,Brazil,,471832,America/Sao_Paulo,-23.31028,-51.16278
Juiz de Fora,Juiz de Fora,BR,Brazil,,470193,America/Sao_Paulo,-21.76417,-43.35028
Belford Roxo,Belford Roxo,BR,Brazil,,466096,America/Sao_Paulo,-22.76417,-43.39944
Joinville,Joinville,BR,Brazil,,461304,America/Sao_Paulo,-26.30444,-48.84556
Niterói,Niteroi,BR,Brazil,,456456,America/Sao_Paulo,-22.88333,-43.10361
São João de Meriti,Sao Joao de Meriti,BR,Brazil,,454849,America/Sao_Paulo,-22.80389,-43.37222
Ananindeua,Ananindeua,BR,Brazil,,433956,America/Belem,-1.36556,-48.37222
Florianópolis,Florianopolis,BR,Brazil,,412724,America/Sao_Paulo,-27.59667,-48.54917
Santos,Santos,BR,Brazil,,411403,America/Sao_Paulo,-23.96083,-46.33361
Ribeirão das Neves,Ribeirao das Neves,BR,Brazil,,406802,America/Sao_Paulo,-19.76694,-44.08667
Vila Velha,Vila Velha,BR,Brazil,,394930,America/Sao_Paulo,-20.32972,-40.2925
Serra,Serra,BR,Brazil,,394153,America/Sao_Paulo,-20.12861,-40.30778
Diadema,Diadema,BR,Brazil,,390633,America/Sao_Paulo,-23.68611,-46.62278
Campos dos Goytacazes,Campos dos Goytacazes,BR,Brazil,,387417,America/Sao_Paulo,-21.75227,-41.33044
Mauá,Maua,BR,Brazil,,386069,America/Sao_Paulo,-23.66778,-46.46139
Betim,Betim,BR,Brazil,,384000,America/Sao_Paulo,-19.96778,-44.19833
Caxias do Sul,Caxias do Sul,BR,Brazil,,381270,America/Sao_Paulo,-29.16806,-51.17944
São José do Rio Preto,Sao Jose do Rio Preto,BR,Brazil,,374699,America/Sao_Paulo,-20.81972,-49.37944
Olinda,Olinda,BR,Brazil,,366754,America/Recife,-8.00889,-34.85528
Carapicuíba,Carapicuiba,BR,Brazil,,361112,America/Sao_Paulo,-23.52272,-46.835
Campina Grande,Campina Grande,BR,Brazil,,348936,America/Fortaleza,-7.23056,-35.88111
Piracicaba,Piracicaba,BR,Brazil,,342209,America/Sao_Paulo,-22.72528,-47.64917
Macapá,Macapa,BR,Brazil,,338936,America/Belem,0.03889,-51.06639
Itaquaquecetuba,Itaquaquecetuba,BR,Brazil,,336679,America/Sao_Paulo,-23.48611,-46.34833
Bauru,Bauru,BR,Brazil,,335024,America/Sao_Paulo,-22.31472,-49.06056
Montes Claros,Montes Claros,BR,Brazil,,332379,America/Sao_Paulo,-16.735,-43.86167
Canoas,Canoas,BR,Brazil,,328291,America/Sao_Paulo,-29.91778,-51.18361
Mogi das Cruzes,Mogi das Cruzes,BR,Brazil,,325746,America/Sao_Paulo,-23.52278,-46.18833
São Vicente,Sao Vicente,BR,Brazil,,324457,America/Sao_Paulo,-23.96306,-46.39194
Jundiaí,Jundiai,BR,Brazil,,321589,America/Sao_Paulo,-23.18639,-46.88417
Pelotas,Pelotas,BR,Brazil,,320674,America/Sao_Paulo,-31.76997,-52.34101
Anápolis,Anapolis,BR,Brazil,,319587,America/Sao_Paulo,-16.32667,-48.95278
Vitória,Vitoria,BR,Brazil,,312656,America/Sao_Paulo,-20.31944,-40.33778
Maringá,Maringa,BR,Brazil,,311724,America/Sao_Paulo,-23.42528,-51.93861
Guarujá,Guaruja,BR,Brazil,,310424,America/Sao_Paulo,-23.99306,-46.25639
Porto Velho,Porto Velho,BR,Brazil,,306180,America/Porto_Velho,-8.76194,-63.90389
Franca,Franca,BR,Brazil,,305041,America/Sao_Paulo,-20.53861,-47.40083
Blumenau,Blumenau,BR,Brazil,,293949,America/Sao_Paulo,-26.91944,-49.06611
Foz do Iguaçu,Foz do Iguacu,BR,Brazil,,293523,America/Sao_Paulo,-25.54778,-54.58806
Ponta Grossa,Ponta Grossa,BR,Brazil,,292177,America/Sao_Paulo,-25.095,-50.16194
Paulista,Paulista,BR,Brazil,,289971,America/Recife,-7.94083,-34.87306
Limeira,Limeira,BR,Brazil,,289665,America/Sao_Paulo,-22.56472,-47.40167
Viamão,Viamao,BR,Brazil,,285269,America/Sao_Paulo,-30.08111,-51.02333
Suzano,Suzano,BR,Brazil,,283314,America/Sao_Paulo,-23.5425,-46.31083
Caucaia,Caucaia,BR,Brazil,,275019,America/Fortaleza,-3.73611,-38.65306
Petrópolis,Petropolis,BR,Brazil,,272691,America/Sao_Paulo,-22.505,-43.17861
Uberaba,Uberaba,BR,Brazil,,260843,America/Sao_Paulo,-19.74833,-47.93194
Rio Branco,Rio Branco,BR,Brazil,,257642,America/Rio_Branco,-9.97472,-67.81
Cascavel,Cascavel,BR,Brazil,,257172,America/Sao_Paulo,-24.95583,-53.45528
Novo Hamburgo,Novo Hamburgo,BR,Brazil,,253841,America/Sao_Paulo,-29.67833,-51.13056
Vitória da Conquista,Vitoria da Conquista,BR,Brazil,,253137,America/Bahia,-14.86611,-40.83944
Barueri,Barueri,BR,Brazil,,251994,America/Sao_Paulo,-23.51056,-46.87611
Taubaté,Taubate,BR,Brazil,,251641,America/Sao_Paulo,-23.02639,-45.55528
Governador Valadares,Governador Valadares,BR,Brazil,,250878,America/Sao_Paulo,-18.85111,-41.94944
Praia Grande,Praia Grande,BR,Brazil,,250027,America/Sao_Paulo,-24.00583,-46.40278
Várzea Grande,Varzea Grande,BR,Brazil,,249752,America/Cuiaba,-15.64667,-56.1325
Volta Redonda,Volta Redonda,BR,Brazil,,249580,America/Sao_Paulo,-22.52306,-44.10417
Santa Maria,Santa Maria,BR,Brazil,,249219,America/Sao_Paulo,-29.68417,-53.80694
Santa Luzia,Santa Luzia,BR,Brazil,,243503,America/Sao_Paulo,-19.76972,-43.85139
Gravataí,Gravatai,BR,Brazil,,238778,America/Sao_Paulo,-29.94218,-50.99278
Caruaru,Caruaru,BR,Brazil,,235371,America/Recife,-8.28333,-35.97611
Boa Vista,Boa Vista,BR,Brazil,,235150,America/Boa_Vista,2.81972,-60.67333
Rio Verde,Rio Verde,BR,Brazil,,229651,America/Sao_Paulo,-17.79806,-50.92806
Ipatinga,Ipatinga,BR,Brazil,,228746,America/Sao_Paulo,-19.46833,-42.53667
Sumaré,Sumare,BR,Brazil,,227977,America/Sao_Paulo,-22.82194,-47.26694
Juazeiro do Norte,Juazeiro do Norte,BR,Brazil,,225230,America/Fortaleza,-7.21306,-39.31528
Embu,Embu,BR,Brazil,,221733,America/Sao_Paulo,-23.64889,-46.85222
Imperatriz,Imperatriz,BR,Brazil,,218106,America/Fortaleza,-5.52639,-47.49167
Colombo,Colombo,BR,Brazil,,217000,America/Sao_Paulo,-25.29167,-49.22417
Taboão da Serra,Taboao da Serra,BR,Brazil,,214523,America/Sao_Paulo,-23.62611,-46.79167
Jacareí,Jacarei,BR,Brazil,,213110,America/Sao_Paulo,-23.30528,-45.96583
Marília,Marilia,BR,Brazil,,212218,America/Sao_Paulo,-22.21389,-49.94583
Presidente Prudente,Presidente Prudente,BR,Brazil,,209502,America/Sao_Paulo,-22.12556,-51.38889
São Leopoldo,Sao Leopoldo,BR,Brazil,,209229,America/Sao_Paulo,-29.76028,-51.14722
Alvorada,Alvorada,BR,Brazil,,209213,America/Sao_Paulo,-29.9904,-51.0781
Itabuna,Itabuna,BR,Brazil,,205660,America/Bahia,-14.78556,-39.28028
São Carlos,Sao Carlos,BR,Brazil,,205035,America/Sao_Paulo,-22.0175,-47.89083
Hortolândia,Hortolandia,BR,Brazil,,203533,America/Sao_Paulo,-22.85833,-47.22
Mossoró,Mossoro,BR,Brazil,,202005,America/Fortaleza,-5.1875,-37.34417
Itapevi,Itapevi,BR,Brazil,,201748,America/Sao_Paulo,-23.54889,-46.93417
Sete Lagoas,Sete Lagoas,BR,Brazil,,201334,America/Sao_Paulo,-19.46583,-44.24667
São José,Sao Jose,BR,Brazil,,200000,America/Sao_Paulo,-28.21171,-49.1632
Palmas,Palmas,BR,Brazil,,196272,America/Araguaina,-10.16745,-48.32766
Parauapebas,Parauapebas,BR,Brazil,,196259,America/Belem,-6.0675,-49.90222
Americana,Americana,BR,Brazil,,196022,America/Sao_Paulo,-22.73917,-47.33139
Petrolina,Petrolina,BR,Brazil,,194650,America/Recife,-9.39861,-40.50083
Divinópolis,Divinopolis,BR,Brazil,,193832,America/Sao_Paulo,-20.14355,-44.89065
Maracanaú,Maracanau,BR,Brazil,,193529,America/Fortaleza,-3.87667,-38.62556
Planaltina,Planaltina,BR,Brazil,,189412,America/Sao_Paulo,-15.61791,-47.64874
Santarém,Santarem,BR,Brazil,,189047,America/Santarem,-2.44306,-54.70833
Camaçari,Camacari,BR,Brazil,,188758,America/Bahia,-12.6975,-38.32417
Santa Bárbara d'Oeste,Santa Barbara d'Oeste,BR,Brazil,,188000,America/Sao_Paulo,-22.75361,-47.41361
Rio Grande,Rio Grande,BR,Brazil,,187838,America/Sao_Paulo,-32.035,-52.09861
Cachoeiro de Itapemirim,Cachoeiro de Itapemirim,BR,Brazil,,187019,America/Sao_Paulo,-20.84889,-41.11278
Itaboraí,Itaborai,BR,Brazil,,182498,America/Sao_Paulo,-22.74444,-42.85944
Rio Claro,Rio Claro,BR,Brazil,,180147,America/Sao_Paulo,-22.41139,-47.56139
Indaiatuba,Indaiatuba,BR,Brazil,,179911,America/Sao_Paulo,-23.08842,-47.2119
Passo Fundo,Passo Fundo,BR,Brazil,,179529,America/Sao_Paulo,-28.26278,-52.40667
Cotia,Cotia,BR,Brazil,,174828,America/Sao_Paulo,-23.60389,-46.91917
Francisco Morato,Francisco Morato,BR,Brazil,,171790,America/Sao_Paulo,-23.28167,-46.74528
Araçatuba,Aracatuba,BR,Brazil,,170024,America/Sao_Paulo,-21.20889,-50.43278
Araraquara,Araraquara,BR,Brazil,,168468,America/Sao_Paulo,-21.79444,-48.17556
Ferraz de Vasconcelos,Ferraz de Vasconcelos,BR,Brazil,,167900,America/Sao_Paulo,-23.54083,-46.36861
Arapiraca,Arapiraca,BR,Brazil,,166562,America/Maceio,-9.7525,-36.66111
Lages,Lages,BR,Brazil,,164676,America/Sao_Paulo,-27.81611,-50.32611
Barra Mansa,Barra Mansa,BR,Brazil,,164052,America/Sao_Paulo,-22.54417,-44.17139
Nossa Senhora do Socorro,Nossa Senhora do Socorro,BR,Brazil,,163993,America/Maceio,-10.855,-37.12611
Dourados,Dourados,BR,Brazil,,162202,America/Campo_Grande,-22.22111,-54.80556
Criciúma,Criciuma,BR,Brazil,,161954,America/Sao_Paulo,-28.6775,-49.36972
Chapecó,Chapeco,BR,Brazil,,160157,America/Sao_Paulo,-27.09639,-52.61833
Barreiras,Barreiras,BR,Brazil,,158292,America/Bahia,-12.15278,-44.99
Sobral,Sobral,BR,Brazil,,157996,America/Fortaleza,-3.68611,-40.34972
Itajaí,Itajai,BR,Brazil,,155716,America/Sao_Paulo,-26.90778,-48.66194
Ilhéus,Ilheus,BR,Brazil,,155499,America/Bahia,-14.79364,-39.03949
Angra dos Reis,Angra dos Reis,BR,Brazil,,153635,America/Sao_Paulo,-23.00667,-44.31806
Nova Friburgo,Nova Friburgo,BR,Brazil,,153361,America/Sao_Paulo,-22.28194,-42.53111
Rondonópolis,Rondonopolis,BR,Brazil,,152912,America/Cuiaba,-16.47083,-54.63556
Itapecerica da Serra,Itapecerica da Serra,BR,Brazil,,151605,America/Sao_Paulo,-23.71694,-46.84917
Guarapuava,Guarapuava,BR,Brazil,,150850,America/Sao_Paulo,-25.39048,-51.46541
Parnamirim,Parnamirim,BR,Brazil,,150343,America/Fortaleza,-5.91556,-35.26278
Caxias,Caxias,BR,Brazil,,148072,America/Fortaleza,-4.85889,-43.35611
Nilópolis,Nilopolis,BR,Brazil,,147281,America/Sao_Paulo,-22.8075,-43.41389
Poços de Caldas,Pocos de Caldas,BR,Brazil,,146588,America/Sao_Paulo,-21.78778,-46.56139
Marabá,Maraba,BR,Brazil,,145860,America/Belem,-5.38146,-49.13232
Luziânia,Luziania,BR,Brazil,,143601,America/Sao_Paulo,-16.2525,-47.95028
Cabo,Cabo,BR,Brazil,,143105,America/Recife,-8.28333,-35.03333
Macaé,Macae,BR,Brazil,,143029,America/Sao_Paulo,-22.38484,-41.78324
Ibirité,Ibirite,BR,Brazil,,141374,America/Sao_Paulo,-20.02194,-44.05889
Lauro de Freitas,Lauro de Freitas,BR,Brazil,,141280,America/Bahia,-12.89444,-38.32722
Paranaguá,Paranagua,BR,Brazil,,141013,America/Sao_Paulo,-25.51626,-48.52537
Parnaíba,Parnaiba,BR,Brazil,,138008,America/Fortaleza,-2.90472,-41.77667
Itu,Itu,BR,Brazil,,137586,America/Sao_Paulo,-23.26417,-47.29917
Castanhal,Castanhal,BR,Brazil,,137406,America/Belem,-1.29389,-47.92639
São Caetano do Sul,Sao Caetano do Sul,BR,Brazil,,136453,America/Sao_Paulo,-23.62306,-46.55111
Queimados,Queimados,BR,Brazil,,135741,America/Sao_Paulo,-22.71611,-43.55528
Pindamonhangaba,Pindamonhangaba,BR,Brazil,,132218,America/Sao_Paulo,-22.92389,-45.46167
Sapucaia,Sapucaia,BR,Brazil,,130937,America/Sao_Paulo,-29.83333,-51.15
Jaraguá do Sul,Jaragua do Sul,BR,Brazil,,130130,America/Sao_Paulo,-26.48611,-49.06667
Mogi Guaçu,Mogi Guacu,BR,Brazil,,128865,America/Sao_Paulo,-22.3677,-46.94552
Jequié,Jequie,BR,Brazil,,127475,America/Bahia,-13.85875,-40.08512
Itapetininga,Itapetininga,BR,Brazil,,126243,America/Sao_Paulo,-23.59167,-48.05306
Patos de Minas,Patos de Minas,BR,Brazil,,126234,America/Sao_Paulo,-18.57889,-46.51806
Bragança Paulista,Braganca Paulista,BR,Brazil,,125096,America/Sao_Paulo,-22.9527,-46.54418
Timon,Timon,BR,Brazil,,124427,America/Fortaleza,-5.09417,-42.83667
São José dos Pinhais,Sao Jose dos Pinhais,BR,Brazil,,124224,America/Sao_Paulo,-25.5302,-49.20836
Teresópolis,Teresopolis,BR,Brazil,,123979,America/Sao_Paulo,-22.4167,-42.97822
Uruguaiana,Uruguaiana,BR,Brazil,,123480,America/Sao_Paulo,-29.75472,-57.08833
Porto Seguro,Porto Seguro,BR,Brazil,,123173,America/Bahia,-16.44972,-39.06472
Alagoinhas,Alagoinhas,BR,Brazil,,122688,America/Bahia,-12.13556,-38.41917
Palhoça,Palhoca,BR,Brazil,,122423,America/Sao_Paulo,-27.64528,-48.66778
Barbacena,Barbacena,BR,Brazil,,122211,America/Sao_Paulo,-21.22583,-43.77361
Cachoeirinha,Cachoeirinha,BR,Brazil,,121084,America/Sao_Paulo,-29.95111,-51.09389
Santa Rita,Santa Rita,BR,Brazil,,119893,America/Fortaleza,-7.11389,-34.97806
Toledo,Toledo,BR,Brazil,,119313,America/Sao_Paulo,-24.71361,-53.74306
Jaú,Jau,BR,Brazil,,119206,America/Sao_Paulo,-22.29639,-48.55778
Cubatão,Cubatao,BR,Brazil,,118410,America/Sao_Paulo,-23.895,-46.42528
Pinhais,Pinhais,BR,Brazil,,117000,America/Sao_Paulo,-25.44472,-49.1925
Simões Filho,Simoes Filho,BR,Brazil,,116662,America/Bahia,-12.78444,-38.40389
Varginha,Varginha,BR,Brazil,,116571,America/Sao_Paulo,-21.55139,-45.43028
Sinop,Sinop,BR,Brazil,,116013,America/Cuiaba,-11.86417,-55.5025
Pouso Alegre,Pouso Alegre,BR,Brazil,,115201,America/Sao_Paulo,-22.23,-45.93639
Eunápolis,Eunapolis,BR,Brazil,,114275,America/Bahia,-16.3775,-39.58028
Botucatu,Botucatu,BR,Brazil,,113862,America/Sao_Paulo,-22.88583,-48.445
Jandira,Jandira,BR,Brazil,,113605,America/Sao_Paulo,-23.5275,-46.9025
Ribeirão Pires,Ribeirao Pires,BR,Brazil,,111888,America/Sao_Paulo,-23.71056,-46.41333
Conselheiro Lafaiete,Conselheiro Lafaiete,BR,Brazil,,111596,America/Sao_Paulo,-20.66028,-43.78611
Resende,Resende,BR,Brazil,,111514,America/Sao_Paulo,-22.46889,-44.44667
Araucária,Araucaria,BR,Brazil,,111302,America/Sao_Paulo,-25.59306,-49.41028
Atibaia,Atibaia,BR,Brazil,,110968,America/Sao_Paulo,-23.11694,-46.55028
Várzea Paulista,Varzea Paulista,BR,Brazil,,110936,America/Sao_Paulo,-23.21139,-46.82833
Garanhuns,Garanhuns,BR,Brazil,,110085,America/Recife,-8.88202,-36.50216
Araruama,Araruama,BR,Brazil,,109637,America/Sao_Paulo,-22.87278,-42.34306
Catanduva,Catanduva,BR,Brazil,,109612,America/Sao_Paulo,-21.13778,-48.97278
Franco da Rocha,Franco da Rocha,BR,Brazil,,108858,America/Sao_Paulo,-23.32167,-46.72694
Cabo Frio,Cabo Frio,BR,Brazil,,108239,America/Sao_Paulo,-22.88717,-42.02622
Ji Paraná,Ji Parana,BR,Brazil,,107697,America/Porto_Velho,-10.88528,-61.95167
Araras,Araras,BR,Brazil,,107463,America/Sao_Paulo,-22.35694,-47.38417
Poá,Poa,BR,Brazil,,107432,America/Sao_Paulo,-23.52806,-46.34472
Vitória de Santo Antão,Vitoria de Santo Antao,BR,Brazil,,107383,America/Recife,-8.11806,-35.29139
Umuarama,Umuarama,BR,Brazil,,107319,America/Sao_Paulo,-23.76639,-53.325
Apucarana,Apucarana,BR,Brazil,,107085,America/Sao_Paulo,-23.55083,-51.46083
Santa Cruz do Sul,Santa Cruz do Sul,BR,Brazil,,106113,America/Sao_Paulo,-29.7175,-52.42583
Guaratinguetá,Guaratingueta,BR,Brazil,,105880,America/Sao_Paulo,-22.81639,-45.1925
Linhares,Linhares,BR,Brazil,,105075,America/Sao_Paulo,-19.39111,-40.07222
Araguaína,Araguaina,BR,Brazil,,105019,America/Araguaina,-7.19111,-48.20722
Esmeraldas,Esmeraldas,BR,Brazil,,103206,America/Sao_Paulo,-19.7625,-44.31389
Birigui,Birigui,BR,Brazil,,102277,America/Sao_Paulo,-21.28861,-50.34
Assis,Assis,BR,Brazil,,101597,America/Sao_Paulo,-22.66167,-50.41222
Barretos,Barretos,BR,Brazil,,101220,America/Sao_Paulo,-20.55722,-48.56778
Colatina,Colatina,BR,Brazil,,101190,America/Sao_Paulo,-19.53944,-40.63056
Teófilo Otoni,Teofilo Otoni,BR,Brazil,,101170,America/Sao_Paulo,-17.8575,-41.50528
Guaíba,Guaiba,BR,Brazil,,101024,America/Sao_Paulo,-30.11389,-51.325
Guarapari,Guarapari,BR,Brazil,,100925,America/Sao_Paulo,-20.67182,-40.50196
Coronel Fabriciano,Coronel Fabriciano,BR,Brazil,,100916,America/Sao_Paulo,-19.51861,-42.62889
Itaguaí,Itaguai,BR,Brazil,,100752,America/Sao_Paulo,-22.85222,-43.77528
Rio das Ostras,Rio das Ostras,BR,Brazil,,100000,America/Sao_Paulo,-22.52694,-41.945
Itabira,Itabira,BR,Brazil,,99496,America/Sao_Paulo,-19.61917,-43.22694
Votorantim,Votorantim,BR,Brazil,,99390,America/Sao_Paulo,-23.54667,-47.43778
Sertãozinho,Sertaozinho,BR,Brazil,,99211,America/Sao_Paulo,-21.13778,-47.99028
Santana de Parnaíba,Santana de Parnaiba,BR,Brazil,,98989,America/Sao_Paulo,-23.44417,-46.91778
Bagé,Bage,BR,Brazil,,98940,America/Sao_Paulo,-31.33139,-54.10694
Passos,Passos,BR,Brazil,,98752,America/Sao_Paulo,-20.71889,-46.60972
Salto,Salto,BR,Brazil,,98387,America/Sao_Paulo,-23.20083,-47.28694
Ubá,Uba,BR,Brazil,,97828,America/Sao_Paulo,-21.12,-42.94278
Ourinhos,Ourinhos,BR,Brazil,,97799,America/Sao_Paulo,-22.97889,-49.87056
Trindade,Trindade,BR,Brazil,,97521,America/Sao_Paulo,-16.64944,-49.48889
Arapongas,Arapongas,BR,Brazil,,97512,America/Sao_Paulo,-23.41944,-51.42444
Araguari,Araguari,BR,Brazil,,96565,America/Sao_Paulo,-18.64722,-48.18722
Corumbá,Corumba,BR,Brazil,,96520,America/Campo_Grande,-19.00917,-57.65333
Erechim,Erechim,BR,Brazil,,96087,America/Sao_Paulo,-27.63461,-52.2754
Japeri,Japeri,BR,Brazil,,95101,America/Sao_Paulo,-22.64306,-43.65333
Vespasiano,Vespasiano,BR,Brazil,,94749,America/Sao_Paulo,-19.69194,-43.92333
Campo Largo,Campo Largo,BR,Brazil,,94668,America/Sao_Paulo,-25.45955,-49.53014
Tatuí,Tatui,BR,Brazil,,93580,America/Sao_Paulo,-23.35556,-47.85694
Patos,Patos,BR,Brazil,,92575,America/Fortaleza,-7.02444,-37.28
Timóteo,Timoteo,BR,Brazil,,91722,America/Sao_Paulo,-19.58106,-42.64953
Muriaé,Muriae,BR,Brazil,,91173,America/Sao_Paulo,-21.13056,-42.36639
Cambé,Cambe,BR,Brazil,,91080,America/Sao_Paulo,-23.27583,-51.27833
Bayeux,Bayeux,BR,Brazil,,91056,America/Fortaleza,-7.125,-34.93222
Bento Gonçalves,Bento Goncalves,BR,Brazil,,90852,America/Sao_Paulo,-29.17139,-51.51917
Caraguatatuba,Caraguatatuba,BR,Brazil,,90843,America/Sao_Paulo,-23.62028,-45.41306
Itanhaém,Itanhaem,BR,Brazil,,90385,America/Sao_Paulo,-24.18306,-46.78889
Santana do Livramento,Santana do Livramento,BR,Brazil,,89694,America/Sao_Paulo,-30.89083,-55.53278
Almirante Tamandaré,Almirante Tamandare,BR,Brazil,,89499,America/Sao_Paulo,-25.32472,-49.31
Planaltina,Planaltina,BR,Brazil,,88853,America/Sao_Paulo,-15.45278,-47.61417
Crato,Crato,BR,Brazil,,88786,America/Fortaleza,-7.23417,-39.40944
Valinhos,Valinhos,BR,Brazil,,88630,America/Sao_Paulo,-22.97056,-46.99583
São Lourenço da Mata,Sao Lourenco da Mata,BR,Brazil,,88416,America/Recife,-8.00222,-35.01833
Nova Lima,Nova Lima,BR,Brazil,,88399,America/Sao_Paulo,-19.98556,-43.84667
Brusque,Brusque,BR,Brazil,,88284,America/Sao_Paulo,-27.09795,-48.91281
Barra do Piraí,Barra do Pirai,BR,Brazil,,87668,America/Sao_Paulo,-22.47,-43.82556
Alegrete,Alegrete,BR,Brazil,,87236,America/Sao_Paulo,-29.78306,-55.79194
Caieiras,Caieiras,BR,Brazil,,87188,America/Sao_Paulo,-23.36417,-46.74056
Barra do Corda,Barra do Corda,BR,Brazil,,86662,America/Fortaleza,-5.50556,-45.24333
Igarassu,Igarassu,BR,Brazil,,86457,America/Recife,-7.83417,-34.90639
Paulo Afonso,Paulo Afonso,BR,Brazil,,85350,America/Bahia,-9.40611,-38.21472
Ituiutaba,Ituiutaba,BR,Brazil,,85345,America/Sao_Paulo,-18.97428,-49.46212
Esteio,Esteio,BR,Brazil,,84902,America/Sao_Paulo,-29.86139,-51.17917
Sarandi,Sarandi,BR,Brazil,,84697,America/Sao_Paulo,-23.44361,-51.87389
Itaperuna,Itaperuna,BR,Brazil,,84435,America/Sao_Paulo,-21.205,-41.88778
Santana,Santana,BR,Brazil,,83927,America/Belem,-0.05833,-51.18167
Jardim Paulista,Jardim Paulista,BR,Brazil,,83667,America/Sao_Paulo,-23.56675,-46.66439
Codó,Codo,BR,Brazil,,83288,America/Fortaleza,-4.45528,-43.88556
Araxá,Araxa,BR,Brazil,,82595,America/Sao_Paulo,-19.59333,-46.94056
Redenção,Redencao,BR,Brazil,,82464,America/Belem,-8.02861,-50.03139
Abreu e Lima,Abreu e Lima,BR,Brazil,,81959,America/Recife,-7.91167,-34.90278
Itajubá,Itajuba,BR,Brazil,,81870,America/Sao_Paulo,-22.42556,-45.45278
Lavras,Lavras,BR,Brazil,,81472,America/Sao_Paulo,-21.24528,-44.99972
Avaré,Avare,BR,Brazil,,81285,America/Sao_Paulo,-23.09861,-48.92583
Formosa,Formosa,BR,Brazil,,81232,America/Sao_Paulo,-15.53722,-47.33444
Leme,Leme,BR,Brazil,,81209,America/Sao_Paulo,-22.18556,-47.39028
Cruzeiro do Sul,Cruzeiro do Sul,BR,Brazil,,79819,America/Rio_Branco,-7.62759,-72.67756
Itumbiara,Itumbiara,BR,Brazil,,79582,America/Sao_Paulo,-18.41917,-49.21528
Maricá,Marica,BR,Brazil,,79551,America/Sao_Paulo,-22.91944,-42.81861
Ubatuba,Ubatuba,BR,Brazil,,79007,America/Sao_Paulo,-23.43389,-45.07111
Três Lagoas,Tres Lagoas,BR,Brazil,,78712,America/Campo_Grande,-20.78765,-51.70338
São João del Rei,Sao Joao del Rei,BR,Brazil,,78592,America/Sao_Paulo,-21.13556,-44.26167
Mogi Mirim,Mogi Mirim,BR,Brazil,,78244,America/Sao_Paulo,-22.43194,-46.95778
Abaetetuba,Abaetetuba,BR,Brazil,,78050,America/Belem,-1.71806,-48.8825
São Bento do Sul,Sao Bento do Sul,BR,Brazil,,77597,America/Sao_Paulo,-26.25028,-49.37861
Itaúna,Itauna,BR,Brazil,,77400,America/Sao_Paulo,-20.07528,-44.57639
São Mateus,Sao Mateus,BR,Brazil,,77117,America/Sao_Paulo,-18.72011,-39.85891
Jataí,Jatai,BR,Brazil,,76547,America/Sao_Paulo,-17.87939,-51.72166
São João da Boa Vista,Sao Joao da Boa Vista,BR,Brazil,,76540,America/Sao_Paulo,-21.96917,-46.79806
Lorena,Lorena,BR,Brazil,,76506,America/Sao_Paulo,-22.73083,-45.12472
Santa Cruz do Capibaribe,Santa Cruz do Capibaribe,BR,Brazil,,76450,America/Recife,-7.9575,-36.20472
São Sebastião,Sao Sebastiao,BR,Brazil,,76367,America/Sao_Paulo,-23.76,-45.40972
Tucuruí,Tucurui,BR,Brazil,,76337,America/Belem,-3.76585,-49.67923
Embu Guaçu,Embu Guacu,BR,Brazil,,76310,America/Sao_Paulo,-23.83222,-46.81139
Sapiranga,Sapiranga,BR,Brazil,,76051,America/Sao_Paulo,-29.63806,-51.00694
Pará de Minas,Para de Minas,BR,Brazil,,75786,America/Sao_Paulo,-19.86028,-44.60833
Campo Mourão,Campo Mourao,BR,Brazil,,75401,America/Sao_Paulo,-24.04309,-52.37929
Cachoeira do Sul,Cachoeira do Sul,BR,Brazil,,74694,America/Sao_Paulo,-30.03917,-52.89389
Santo Antônio de Jesus,Santo Antonio de Jesus,BR,Brazil,,73957,America/Bahia,-12.96889,-39.26139
Paranavaí,Paranavai,BR,Brazil,,72848,America/Sao_Paulo,-23.07306,-52.46528
João Monlevade,Joao Monlevade,BR,Brazil,,72762,America/Sao_Paulo,-19.81,-43.17361
Matão,Matao,BR,Brazil,,72468,America/Sao_Paulo,-21.60333,-48.36583
Bacabal,Bacabal,BR,Brazil,,72372,America/Fortaleza,-4.29167,-44.79167
Caçapava,Cacapava,BR,Brazil,,72340,America/Sao_Paulo,-23.10083,-45.70694
Arujá,Aruja,BR,Brazil,,72077,America/Sao_Paulo,-23.39611,-46.32083
Cruzeiro,Cruzeiro,BR,Brazil,,72022,America/Sao_Paulo,-22.57316,-44.97108
Patrocínio,Patrocinio,BR,Brazil,,71963,America/Sao_Paulo,-18.94389,-46.9925
Três Rios,Tres Rios,BR,Brazil,,71944,America/Sao_Paulo,-22.11667,-43.20917
Bebedouro,Bebedouro,BR,Brazil,,71862,America/Sao_Paulo,-20.94944,-48.47917
São Cristóvão,Sao Cristovao,BR,Brazil,,71539,America/Maceio,-11.01472,-37.20639
Alfenas,Alfenas,BR,Brazil,,71406,America/Sao_Paulo,-21.42917,-45.94722
Ijuí,Ijui,BR,Brazil,,71202,America/Sao_Paulo,-28.38778,-53.91472
Altamira,Altamira,BR,Brazil,,70888,America/Santarem,-3.20333,-52.20639
Paracatu,Paracatu,BR,Brazil,,70753,America/Sao_Paulo,-17.22222,-46.87472
Carpina,Carpina,BR,Brazil,,70689,America/Recife,-7.85083,-35.25472
Iguatu,Iguatu,BR,Brazil,,70380,America/Fortaleza,-6.35944,-39.29861
Votuporanga,Votuporanga,BR,Brazil,,69863,America/Sao_Paulo,-20.42278,-49.97278
Paragominas,Paragominas,BR,Brazil,,69613,America/Belem,-2.96667,-47.48333
Lins,Lins,BR,Brazil,,69451,America/Sao_Paulo,-21.67861,-49.7425
Jaboticabal,Jaboticabal,BR,Brazil,,69394,America/Sao_Paulo,-21.25472,-48.32222
Viçosa,Vicosa,BR,Brazil,,68680,America/Sao_Paulo,-20.75389,-42.88194
São Sebastião do Paraíso,Sao Sebastiao do Paraiso,BR,Brazil,,68654,America/Sao_Paulo,-20.91694,-46.99139
Balsas,Balsas,BR,Brazil,,68056,America/Fortaleza,-7.5325,-46.03556
Itatiba,Itatiba,BR,Brazil,,67934,America/Sao_Paulo,-23.00583,-46.83889
Santa Inês,Santa Ines,BR,Brazil,,67424,America/Fortaleza,-3.66667,-45.38
Tubarão,Tubarao,BR,Brazil,,67245,America/Sao_Paulo,-28.46667,-49.00694
Pato Branco,Pato Branco,BR,Brazil,,65754,America/Sao_Paulo,-26.22861,-52.67056
Paulínia,Paulinia,BR,Brazil,,65595,America/Sao_Paulo,-22.76111,-47.15417
Lajeado,Lajeado,BR,Brazil,,65407,America/Sao_Paulo,-29.46694,-51.96139
Cruz Alta,Cruz Alta,BR,Brazil,,65275,America/Sao_Paulo,-28.64397,-53.60633
Aquiraz,Aquiraz,BR,Brazil,,65116,America/Fortaleza,-3.90139,-38.39111
Itacoatiara,Itacoatiara,BR,Brazil,,64937,America/Manaus,-3.14306,-58.44417
Gurupi,Gurupi,BR,Brazil,,64789,America/Araguaina,-11.72917,-49.06861
Itaituba,Itaituba,BR,Brazil,,64756,America/Santarem,-4.27611,-55.98361
Santo Ângelo,Santo Angelo,BR,Brazil,,64606,America/Sao_Paulo,-28.29917,-54.26306
Parintins,Parintins,BR,Brazil,,64428,America/Manaus,-2.62833,-56.73583
Curvelo,Curvelo,BR,Brazil,,63954,America/Sao_Paulo,-18.75639,-44.43083
Itabaiana,Itabaiana,BR,Brazil,,63888,America/Maceio,-10.685,-37.42528
Caçador,Cacador,BR,Brazil,,63726,America/Sao_Paulo,-26.77528,-51.015
Ouro Preto,Ouro Preto,BR,Brazil,,63678,America/Sao_Paulo,-20.39484,-43.50517
Caldas Novas,Caldas Novas,BR,Brazil,,63675,America/Sao_Paulo,-17.74431,-48.62789
Irecê,Irece,BR,Brazil,,63626,America/Bahia,-11.30417,-41.85583
Catalão,Catalao,BR,Brazil,,63544,America/Sao_Paulo,-18.16583,-47.94639
Três Corações,Tres Coracoes,BR,Brazil,,63457,America/Sao_Paulo,-21.69694,-45.25333
Rio Largo,Rio Largo,BR,Brazil,,63387,America/Maceio,-9.47833,-35.85333
Valença,Valenca,BR,Brazil,,63231,America/Bahia,-13.37028,-39.07306
Vilhena,Vilhena,BR,Brazil,,63231,America/Porto_Velho,-12.74056,-60.14583
Peruíbe,Peruibe,BR,Brazil,,63030,America/Sao_Paulo,-24.32,-46.99833
Itapeva,Itapeva,BR,Brazil,,62957,America/Sao_Paulo,-23.98222,-48.87556
Cataguases,Cataguases,BR,Brazil,,62618,America/Sao_Paulo,-21.38917,-42.69667
Saquarema,Saquarema,BR,Brazil,,62056,America/Sao_Paulo,-22.92,-42.51028
Tupã,Tupa,BR,Brazil,,62035,America/Sao_Paulo,-21.93472,-50.51361
Fernandópolis,Fernandopolis,BR,Brazil,,61931,America/Sao_Paulo,-20.28389,-50.24639
Senador Canedo,Senador Canedo,BR,Brazil,,61800,America/Sao_Paulo,-16.70806,-49.09306
Itapira,Itapira,BR,Brazil,,61607,America/Sao_Paulo,-22.43611,-46.82167
Gravatá,Gravata,BR,Brazil,,61249,America/Recife,-8.20111,-35.56472
Valença,Valenca,BR,Brazil,,61144,America/Sao_Paulo,-22.24556,-43.70028
Pirassununga,Pirassununga,BR,Brazil,,60413,America/Sao_Paulo,-21.99611,-47.42583
Unaí,Unai,BR,Brazil,,60202,America/Sao_Paulo,-16.3575,-46.90611
Caratinga,Caratinga,BR,Brazil,,60066,America/Sao_Paulo,-19.78972,-42.13917
Itapetinga,Itapetinga,BR,Brazil,,59721,America/Bahia,-15.24889,-40.24778
Mococa,Mococa,BR,Brazil,,59654,America/Sao_Paulo,-21.46778,-47.00472
São Borja,Sao Borja,BR,Brazil,,59613,America/Sao_Paulo,-28.66056,-56.00444
Carazinho,Carazinho,BR,Brazil,,59417,America/Sao_Paulo,-28.28389,-52.78639
Santa Rosa,Santa Rosa,BR,Brazil,,58957,America/Sao_Paulo,-27.87083,-54.48139
Telêmaco Borba,Telemaco Borba,BR,Brazil,,58880,America/Sao_Paulo,-24.32389,-50.61556
Guanambi,Guanambi,BR,Brazil,,58877,America/Bahia,-14.22333,-42.78139
Aracruz,Aracruz,BR,Brazil,,58271,America/Sao_Paulo,-19.82028,-40.27333
Ariquemes,Ariquemes,BR,Brazil,,58096,America/Porto_Velho,-9.91333,-63.04083
Farroupilha,Farroupilha,BR,Brazil,,57650,America/Sao_Paulo,-29.225,-51.34778
Francisco Beltrão,Francisco Beltrao,BR,Brazil,,57618,America/Sao_Paulo,-26.08111,-53.055
Picos,Picos,BR,Brazil,,57495,America/Fortaleza,-7.07694,-41.46694
Lençóis Paulista,Lencois Paulista,BR,Brazil,,57375,America/Sao_Paulo,-22.59861,-48.80028
Bragança,Braganca,BR,Brazil,,57163,America/Belem,-1.05361,-46.76556
Arcoverde,Arcoverde,BR,Brazil,,57163,America/Recife,-8.41889,-37.05389
Vacaria,Vacaria,BR,Brazil,,56765,America/Sao_Paulo,-28.51222,-50.93389
Cajamar,Cajamar,BR,Brazil,,56682,America/Sao_Paulo,-23.35611,-46.87694
Janaúba,Janauba,BR,Brazil,,56572,America/Sao_Paulo,-15.8025,-43.30889
Vinhedo,Vinhedo,BR,Brazil,,56492,America/Sao_Paulo,-23.02972,-46.97528
Formiga,Formiga,BR,Brazil,,56404,America/Sao_Paulo,-20.46444,-45.42639
Cianorte,Cianorte,BR,Brazil,,55994,America/Sao_Paulo,-23.66333,-52.605
Itapipoca,Itapipoca,BR,Brazil,,55784,America/Fortaleza,-3.49444,-39.57861
Ponta Porã,Ponta Pora,BR,Brazil,,55763,America/Campo_Grande,-22.53611,-55.72556
Estância,Estancia,BR,Brazil,,55654,America/Maceio,-11.26833,-37.43833
Cacoal,Cacoal,BR,Brazil,,55560,America/Porto_Velho,-11.43861,-61.44722
São Gabriel,Sao Gabriel,BR,Brazil,,55434,America/Sao_Paulo,-30.33639,-54.32
Concórdia,Concordia,BR,Brazil,,55367,America/Sao_Paulo,-27.23417,-52.02778
Pacatuba,Pacatuba,BR,Brazil,,55291,America/Fortaleza,-3.98417,-38.62028
Viana,Viana,BR,Brazil,,55122,America/Sao_Paulo,-20.39028,-40.49611
São Pedro da Aldeia,Sao Pedro da Aldeia,BR,Brazil,,55014,America/Sao_Paulo,-22.83917,-42.10278
Caicó,Caico,BR,Brazil,,54934,America/Fortaleza,-6.45833,-37.09778
Seropédica,Seropedica,BR,Brazil,,54846,America/Sao_Paulo,-22.74389,-43.7075
Cabedelo,Cabedelo,BR,Brazil,,54839,America/Fortaleza,-6.98111,-34.83389
Manhuaçu,Manhuacu,BR,Brazil,,54607,America/Sao_Paulo,-20.25806,-42.03361
Penápolis,Penapolis,BR,Brazil,,54477,America/Sao_Paulo,-21.41972,-50.0775
Mairiporã,Mairipora,BR,Brazil,,54415,America/Sao_Paulo,-23.31861,-46.58667
Montenegro,Montenegro,BR,Brazil,,54057,America/Sao_Paulo,-29.68861,-51.46111
Ipojuca,Ipojuca,BR,Brazil,,53364,America/Recife,-8.39889,-35.06389
Campos do Jordão,Campos do Jordao,BR,Brazil,,53319,America/Sao_Paulo,-22.73944,-45.59139
Camaquã,Camaqua,BR,Brazil,,53169,America/Sao_Paulo,-30.85111,-51.81222
Crateús,Crateus,BR,Brazil,,52933,America/Fortaleza,-5.17833,-40.6775
Manacapuru,Manacapuru,BR,Brazil,,52459,America/Manaus,-3.29972,-60.62056
Andradina,Andradina,BR,Brazil,,52406,America/Sao_Paulo,-20.89611,-51.37944
Barra do Garças,Barra do Garcas,BR,Brazil,,52398,America/Cuiaba,-15.89,-52.25667
Cascavel,Cascavel,BR,Brazil,,52357,America/Fortaleza,-4.13306,-38.24194
Biguaçu,Biguacu,BR,Brazil,,51992,America/Sao_Paulo,-27.49417,-48.65556
Batatais,Batatais,BR,Brazil,,51976,America/Sao_Paulo,-20.89111,-47.585
Rio do Sul,Rio do Sul,BR,Brazil,,51944,America/Sao_Paulo,-27.21417,-49.64306
Pirapora,Pirapora,BR,Brazil,,51656,America/Sao_Paulo,-17.345,-44.94194
Içara,Icara,BR,Brazil,,51454,America/Sao_Paulo,-28.71333,-49.3
Bezerros,Bezerros,BR,Brazil,,51436,America/Recife,-8.23333,-35.79694
Serra Talhada,Serra Talhada,BR,Brazil,,51203,America/Recife,-7.99194,-38.29833
Horizonte,Horizonte,BR,Brazil,,51171,America/Fortaleza,-4.1,-38.48333
Rolândia,Rolandia,BR,Brazil,,51004,America/Sao_Paulo,-23.30972,-51.36917
Marechal Deodoro,Marechal Deodoro,BR,Brazil,,50571,America/Maceio,-9.71028,-35.895
São Roque,Sao Roque,BR,Brazil,,50540,America/Sao_Paulo,-23.52917,-47.13528
Coari,Coari,BR,Brazil,,50490,America/Manaus,-4.085,-63.14139
Taquaritinga,Taquaritinga,BR,Brazil,,50098,America/Sao_Paulo,-21.40611,-48.50472
Bandar Seri Begawan,Bandar Seri Begawan,BN,Brunei Darussalam,,64409,Asia/Brunei,4.89035,114.94006
Sofia,Sofia,BG,Bulgaria,,1152556,Europe/Sofia,42.69751,23.32415
Plovdiv,Plovdiv,BG,Bulgaria,,346893,Europe/Sofia,42.15,24.75
Varna,Varna,BG,Bulgaria,,312770,Europe/Sofia,43.21667,27.91667
Burgas,Burgas,BG,Bulgaria,,195966,Europe/Sofia,42.50606,27.46781
Stara Zagora,Stara Zagora,BG,Bulgaria,,143431,Europe/Sofia,42.43278,25.64194
Ruse,Ruse,BG,Bulgaria,,143417,Europe/Sofia,43.84872,25.9534
Pleven,Pleven,BG,Bulgaria,,100952,Europe/Sofia,43.41667,24.61667
Sliven,Sliven,BG,Bulgaria,,83740,Europe/Sofia,42.68583,26.32917
Pernik,Pernik,BG,Bulgaria,,82467,Europe/Sofia,42.6,23.03333
Dobrich,Dobrich,BG,Bulgaria,,79269,Europe/Sofia,43.56667,27.83333
Shumen,Shumen,BG,Bulgaria,,72342,Europe/Sofia,43.27064,26.92286
Blagoevgrad,Blagoevgrad,BG,Bulgaria,,67810,Europe/Sofia,42.01667,23.1
Haskovo,Haskovo,BG,Bulgaria,,67086,Europe/Sofia,41.93415,25.55557
Veliko Tŭrnovo,Veliko Turnovo,BG,Bulgaria,,66217,Europe/Sofia,43.08124,25.62904
Gabrovo,Gabrovo,BG,Bulgaria,,66175,Europe/Sofia,42.87472,25.33417
Pazardzhik,Pazardzhik,BG,Bulgaria,,65671,Europe/Sofia,42.2,24.33333
Vratsa,Vratsa,BG,Bulgaria,,64941,Europe/Sofia,43.21,23.5625
Yambol,Yambol,BG,Bulgaria,,63656,Europe/Sofia,42.48333,26.5
Asenovgrad,Asenovgrad,BG,Bulgaria,,54778,Europe/Sofia,42.01667,24.86667
Kardzhali,Kardzhali,BG,Bulgaria,,51000,Europe/Sofia,41.65,25.36667
Ouagadougou,Ouagadougou,BF,Burkina Faso,,1086505,Africa/Ouagadougou,12.36566,-1.53388
Bobo-Dioulasso,Bobo-Dioulasso,BF,Burkina Faso,,360106,Africa/Ouagadougou,11.17715,-4.2979
Koudougou,Koudougou,BF,Burkina Faso,,87347,Africa/Ouagadougou,12.25263,-2.36272
Ouahigouya,Ouahigouya,BF,Burkina Faso,,61096,Africa/Ouagadougou,13.58278,-2.42158
Banfora,Banfora,BF,Burkina Faso,,60288,Africa/Ouagadougou,10.63333,-4.76667
Bujumbura,Bujumbura,BI,Burundi,,331700,Africa/Bujumbura,-3.38193,29.36142
Muyinga,Muyinga,BI,Burundi,,71076,Africa/Bujumbura,-2.8451,30.3414
Phnom Penh,Phnom Penh,KH,Cambodia,,1573544,Asia/Phnom_Penh,11.56245,104.91601
Takeo,Takeo,KH,Cambodia,,843931,Asia/Phnom_Penh,10.99081,104.78498
Siem Reap,Siem Reap,KH,Cambodia,,139458,Asia/Phnom_Penh,13.36179,103.86056
Battambang,Battambang,KH,Cambodia,,119251,Asia/Phnom_Penh,13.10271,103.19822
Paoy Paet,Paoy Paet,KH,Cambodia,,79000,Asia/Phnom_Penh,13.65805,102.56365
Kampong Chhnang,Kampong Chhnang,KH,Cambodia,,75244,Asia/Phnom_Penh,12.25,104.66667
Sihanoukville,Sihanoukville,KH,Cambodia,,73036,Asia/Phnom_Penh,10.60932,103.52958
Kampong Cham,Kampong Cham,KH,Cambodia,,61750,Asia/Phnom_Penh,11.99339,105.4635
Pursat,Pursat,KH,Cambodia,,52476,Asia/Phnom_Penh,12.53878,103.9192
Ta Khmau,Ta Khmau,KH,Cambodia,,52066,Asia/Phnom_Penh,11.48333,104.95
Douala,Douala,CM,Cameroon,,1338082,Africa/Douala,4.04827,9.70428
Yaoundé,Yaounde,CM,Cameroon,,1299369,Africa/Douala,3.86667,11.51667
Garoua,Garoua,CM,Cameroon,,436899,Africa/Douala,9.30143,13.39771
Kousséri,Kousseri,CM,Cameroon,,435547,Africa/Douala,12.07689,15.03063
Bamenda,Bamenda,CM,Cameroon,,393835,Africa/Douala,5.9597,10.14597
Maroua,Maroua,CM,Cameroon,,319941,Africa/Douala,10.59095,14.31593
Bafoussam,Bafoussam,CM,Cameroon,,290768,Africa/Douala,5.47775,10.41759
Mokolo,Mokolo,CM,Cameroon,,275239,Africa/Douala,10.74244,13.80227
Ngaoundéré,Ngaoundere,CM,Cameroon,,231357,Africa/Douala,7.32765,13.58472
Bertoua,Bertoua,CM,Cameroon,,218111,Africa/Douala,4.57728,13.68459
Edéa,Edea,CM,Cameroon,,203149,Africa/Douala,3.8,10.13333
Loum,Loum,CM,Cameroon,,177429,Africa/Douala,4.7182,9.7351
Kumba,Kumba,CM,Cameroon,,144413,Africa/Douala,4.6363,9.4469
Nkongsamba,Nkongsamba,CM,Cameroon,,117063,Africa/Douala,4.9547,9.9404
Mbouda,Mbouda,CM,Cameroon,,111320,Africa/Douala,5.62611,10.25421
Dschang,Dschang,CM,Cameroon,,96112,Africa/Douala,5.44397,10.05332
Foumban,Foumban,CM,Cameroon,,92673,Africa/Douala,5.72662,10.89865
Ébolowa,Ebolowa,CM,Cameroon,,87875,Africa/Douala,2.9,11.15
Guider,Guider,CM,Cameroon,,84647,Africa/Douala,9.9333,13.94671
Foumbot,Foumbot,CM,Cameroon,,84065,Africa/Douala,5.50803,10.6325
Bafang,Bafang,CM,Cameroon,,80688,Africa/Douala,5.15705,10.1771
Yagoua,Yagoua,CM,Cameroon,,80235,Africa/Douala,10.34107,15.23288
Mbalmayo,Mbalmayo,CM,Cameroon,,80206,Africa/Douala,3.51667,11.5
Meïganga,Meiganga,CM,Cameroon,,80100,Africa/Douala,6.51667,14.3
Bali,Bali,CM,Cameroon,,72606,Africa/Douala,5.88737,10.01176
Limbe,Limbe,CM,Cameroon,,72106,Africa/Douala,4.02356,9.20607
Bafia,Bafia,CM,Cameroon,,69270,Africa/Douala,4.75,11.23333
Wum,Wum,CM,Cameroon,,68836,Africa/Douala,6.38333,10.06667
Bangangté,Bangangte,CM,Cameroon,,65385,Africa/Douala,5.14079,10.52535
Tiko,Tiko,CM,Cameroon,,55914,Africa/Douala,4.075,9.36005
Kribi,Kribi,CM,Cameroon,,55224,Africa/Douala,2.93725,9.90765
Mora,Mora,CM,Cameroon,,55216,Africa/Douala,11.04611,14.14011
Sangmélima,Sangmelima,CM,Cameroon,,54251,Africa/Douala,2.93333,11.98333
Kumbo,Kumbo,CM,Cameroon,,53970,Africa/Douala,6.2,10.66667
Nkoteng,Nkoteng,CM,Cameroon,,50334,Africa/Douala,4.51667,12.03333
Toronto,Toronto,CA,Canada,,2600000,America/Toronto,43.70011,-79.4163
Montréal,Montreal,CA,Canada,,1762949,America/Toronto,45.50884,-73.58781
Calgary,Calgary,CA,Canada,,1019942,America/Edmonton,51.05011,-114.08529
Edmonton,Edmonton,CA,Canada,,1010899,America/Edmonton,53.55014,-113.46871
Ottawa,Ottawa,CA,Canada,,812129,America/Toronto,45.41117,-75.69812
Winnipeg,Winnipeg,CA,Canada,,749607,America/Winnipeg,49.8844,-97.14704
Mississauga,Mississauga,CA,Canada,,668549,America/Toronto,43.5789,-79.6583
Vancouver,Vancouver,CA,Canada,,600000,America/Vancouver,49.24966,-123.11934
Brampton,Brampton,CA,Canada,,593638,America/Toronto,43.68341,-79.76633
Québec,Quebec,CA,Canada,,531902,America/Toronto,46.81228,-71.21454
Hamilton,Hamilton,CA,Canada,,519949,America/Toronto,43.25011,-79.84963
Halifax,Halifax,CA,Canada,,439819,America/Halifax,44.6464,-63.57291
Laval,Laval,CA,Canada,,422993,America/Toronto,45.56995,-73.692
Surrey,Surrey,CA,Canada,,394976,America/Vancouver,49.10635,-122.82509
London,London,CA,Canada,,346765,America/Toronto,42.98339,-81.23304
Markham,Markham,CA,Canada,,328966,America/Toronto,43.86682,-79.2663
Vaughan,Vaughan,CA,Canada,,306233,America/Toronto,43.8361,-79.49827
Okanagan,Okanagan,CA,Canada,,297601,America/Vancouver,50.36386,-119.34997
Victoria,Victoria,CA,Canada,,289625,America/Vancouver,48.4359,-123.35155
Windsor,Windsor,CA,Canada,,278013,America/Toronto,42.30008,-83.01654
Kitchener,Kitchener,CA,Canada,,256885,America/Toronto,43.42537,-80.5112
Gatineau,Gatineau,CA,Canada,,242124,America/Toronto,45.47723,-75.70164
Longueuil,Longueuil,CA,Canada,,229330,America/Toronto,45.53121,-73.51806
Burnaby,Burnaby,CA,Canada,,202799,America/Vancouver,49.26636,-122.95263
Ladner,Ladner,CA,Canada,,200000,America/Vancouver,49.08938,-123.08241
Saskatoon,Saskatoon,CA,Canada,,198958,America/Regina,52.13238,-106.66892
Richmond,Richmond,CA,Canada,,198309,America/Vancouver,49.17003,-123.13683
Richmond Hill,Richmond Hill,CA,Canada,,195022,America/Toronto,43.87111,-79.43725
Oakville,Oakville,CA,Canada,,193832,America/Toronto,43.45011,-79.68292
Burlington,Burlington,CA,Canada,,183314,America/Toronto,43.38621,-79.83713
Nepean,Nepean,CA,Canada,,180000,America/Toronto,45.33619,-75.7225
Regina,Regina,CA,Canada,,176183,America/Regina,50.45008,-104.6178
Oshawa,Oshawa,CA,Canada,,166000,America/Toronto,43.90012,-78.84957
Greater Sudbury,Greater Sudbury,CA,Canada,,157857,America/Toronto,46.49,-80.99001
Saguenay,Saguenay,CA,Canada,,143692,America/Toronto,48.41675,-71.06573
Lévis,Levis,CA,Canada,,143414,America/Toronto,46.80326,-71.17793
Kelowna,Kelowna,CA,Canada,,142146,America/Vancouver,49.88307,-119.48568
Barrie,Barrie,CA,Canada,,141434,America/Toronto,44.40011,-79.66634
Abbotsford,Abbotsford,CA,Canada,,141397,America/Vancouver,49.05798,-122.25257
Coquitlam,Coquitlam,CA,Canada,,140000,America/Vancouver,49.2846,-122.78217
St. Catharines,St. Catharines,CA,Canada,,133113,America/Toronto,43.17126,-79.24267
Milton,Milton,CA,Canada,,132979,America/Toronto,43.51681,-79.88294
Cambridge,Cambridge,CA,Canada,,129920,America/Toronto,43.3601,-80.31269
Sherbrooke,Sherbrooke,CA,Canada,,129447,America/Toronto,45.40008,-71.89908
Trois-Rivières,Trois-Rivieres,CA,Canada,,119693,America/Toronto,46.34515,-72.5477
Ajax,Ajax,CA,Canada,,119677,America/Toronto,43.85012,-79.03288
Guelph,Guelph,CA,Canada,,115760,America/Toronto,43.54594,-80.25599
Kingston,Kingston,CA,Canada,,114195,America/Toronto,44.22976,-76.48098
Terrebonne,Terrebonne,CA,Canada,,111575,America/Toronto,45.70004,-73.64732
St. John's,St. John's,CA,Canada,,110525,America/St_Johns,47.56494,-52.70931
Moncton,Moncton,CA,Canada,,108620,America/Moncton,46.09454,-64.7965
Thunder Bay,Thunder Bay,CA,Canada,,107909,America/Thunder_Bay,48.38202,-89.25018
Sydney,Sydney,CA,Canada,,105968,America/Glace_Bay,46.1351,-60.1831
Waterloo,Waterloo,CA,Canada,,104986,America/Toronto,43.4668,-80.51639
Delta,Delta,CA,Canada,,101668,America/Vancouver,49.14399,-122.9068
Dartmouth,Dartmouth,CA,Canada,,101343,America/Halifax,44.67134,-63.57719
Saint-Jean-sur-Richelieu,Saint-Jean-sur-Richelieu,CA,Canada,,98036,America/Toronto,45.30713,-73.26259
Chilliwack,Chilliwack,CA,Canada,,93203,America/Vancouver,49.16638,-121.95257
Pickering,Pickering,CA,Canada,,91771,America/Toronto,43.90012,-79.13289
Nanaimo,Nanaimo,CA,Canada,,90504,America/Vancouver,49.16638,-123.94003
Kamloops,Kamloops,CA,Canada,,90280,America/Vancouver,50.66648,-120.3192
Kanata,Kanata,CA,Canada,,90000,America/Toronto,45.3001,-75.91606
Brantford,Brantford,CA,Canada,,87759,America/Toronto,43.1334,-80.26636
Repentigny,Repentigny,CA,Canada,,84965,America/Toronto,45.74222,-73.45008
Newmarket,Newmarket,CA,Canada,,84224,America/Toronto,44.05011,-79.46631
Maple Ridge,Maple Ridge,CA,Canada,,82256,America/Vancouver,49.21939,-122.60193
Niagara Falls,Niagara Falls,CA,Canada,,82000,America/Toronto,43.10012,-79.06627
Peterborough,Peterborough,CA,Canada,,81032,America/Toronto,44.30012,-78.31623
Willowdale,Willowdale,CA,Canada,,79440,America/Toronto,43.76672,-79.39909
Saint-Laurent,Saint-Laurent,CA,Canada,,77391,America/Toronto,45.50008,-73.66585
La Haute-Saint-Charles,La Haute-Saint-Charles,CA,Canada,,74070,America/Toronto,46.89028,-71.37222
Prince George,Prince George,CA,Canada,,74003,America/Vancouver,53.9166,-122.75301
Red Deer,Red Deer,CA,Canada,,73593,America/Edmonton,52.26682,-113.802
Saint-Léonard,Saint-Leonard,CA,Canada,,73423,America/Toronto,45.58773,-73.59501
Sarnia,Sarnia,CA,Canada,,72125,America/Toronto,42.97866,-82.40407
Sault Ste. Marie,Sault Ste. Marie,CA,Canada,,72051,America/Toronto,46.51677,-84.33325
Sherwood Park,Sherwood Park,CA,Canada,,70618,America/Edmonton,53.51684,-113.3187
Lethbridge,Lethbridge,CA,Canada,,70617,America/Edmonton,49.69999,-112.81856
Brossard,Brossard,CA,Canada,,69575,America/Toronto,45.45008,-73.46583
Saint John,Saint John,CA,Canada,,67575,America/Moncton,45.27076,-66.05616
Notre-Dame-de-Grâce,Notre-Dame-de-Grace,CA,Canada,,67000,America/Toronto,45.47675,-73.61432
Fort McMurray,Fort McMurray,CA,Canada,,66573,America/Edmonton,56.72676,-111.38103
Caledon,Caledon,CA,Canada,,66502,America/Toronto,43.86544,-79.99322
White Rock,White Rock,CA,Canada,,66450,America/Vancouver,49.02049,-122.79507
Granby,Granby,CA,Canada,,66222,America/Toronto,45.40008,-72.73243
Waterfront Communities-The Island,Waterfront Communities-The Island,CA,Canada,,65913,America/Toronto,43.63388,-79.3772
Medicine Hat,Medicine Hat,CA,Canada,,63138,America/Edmonton,50.03928,-110.67661
Fredericton,Fredericton,CA,Canada,,63116,America/Moncton,45.94541,-66.66558
Norfolk County,Norfolk County,CA,Canada,,60847,America/Toronto,42.8334,-80.38297
Drummondville,Drummondville,CA,Canada,,59489,America/Toronto,45.88336,-72.48241
New Westminster,New Westminster,CA,Canada,,58549,America/Vancouver,49.20678,-122.91092
Port Coquitlam,Port Coquitlam,CA,Canada,,58000,America/Vancouver,49.26637,-122.76932
St. Albert,St. Albert,CA,Canada,,57719,America/Edmonton,53.63344,-113.63533
Aurora,Aurora,CA,Canada,,55445,America/Toronto,44.00011,-79.46632
Saint-Jérôme,Saint-Jerome,CA,Canada,,54948,America/Toronto,45.78036,-74.00365
Jonquière,Jonquiere,CA,Canada,,54842,America/Toronto,48.41648,-71.24884
Woburn,Woburn,CA,Canada,,53485,America/Toronto,43.76657,-79.22773
Welland,Welland,CA,Canada,,52293,America/Toronto,42.98342,-79.24958
Belleville,Belleville,CA,Canada,,50716,America/Toronto,44.16682,-77.38277
Willowdale East,Willowdale East,CA,Canada,,50434,America/Toronto,43.7706,-79.40148
North Bay,North Bay,CA,Canada,,50396,America/Toronto,46.3168,-79.46633
Saint-Hyacinthe,Saint-Hyacinthe,CA,Canada,,50326,America/Toronto,45.63076,-72.95699
Praia,Praia,CV,Cape Verde,,113364,Atlantic/Cape_Verde,14.93152,-23.51254
Mindelo,Mindelo,CV,Cape Verde,,70611,Atlantic/Cape_Verde,16.89014,-24.98042
Bangui,Bangui,CF,Central African Republic,,542393,Africa/Bangui,4.36122,18.55496
Bimbo,Bimbo,CF,Central African Republic,,129655,Africa/Bangui,4.25671,18.41583
Mbaïki,Mbaiki,CF,Central African Republic,,67132,Africa/Bangui,3.86781,17.98923
Berbérati,Berberati,CF,Central African Republic,,61815,Africa/Bangui,4.26116,15.79216
Kaga Bandoro,Kaga Bandoro,CF,Central African Republic,,56520,Africa/Bangui,6.98961,19.18744
N'Djamena,N'Djamena,TD,Chad,,721081,Africa/Ndjamena,12.10672,15.0444
Moundou,Moundou,TD,Chad,,135167,Africa/Ndjamena,8.57437,16.07722
Sarh,Sarh,TD,Chad,,102528,Africa/Ndjamena,9.14555,18.38331
Abéché,Abeche,TD,Chad,,74188,Africa/Ndjamena,13.82916,20.8324
Santiago,Santiago,CL,Chile,,4837295,America/Santiago,-33.45694,-70.64827
Puente Alto,Puente Alto,CL,Chile,,568106,America/Santiago,-33.61169,-70.57577
Antofagasta,Antofagasta,CL,Chile,,352638,America/Santiago,-23.65236,-70.3954
Viña del Mar,Vina del Mar,CL,Chile,,294551,America/Santiago,-33.02457,-71.55183
Valparaíso,Valparaiso,CL,Chile,,282448,America/Santiago,-33.036,-71.62963
Talcahuano,Talcahuano,CL,Chile,,252968,America/Santiago,-36.72494,-73.11684
San Bernardo,San Bernardo,CL,Chile,,249858,America/Santiago,-33.59217,-70.6996
Puerto Montt,Puerto Montt,CL,Chile,,245902,America/Santiago,-41.4693,-72.94237
Temuco,Temuco,CL,Chile,,238129,America/Santiago,-38.73965,-72.59842
Concepción,Concepcion,CL,Chile,,223574,America/Santiago,-36.82699,-73.04977
Rancagua,Rancagua,CL,Chile,,212695,America/Santiago,-34.17083,-70.74444
La Pintana,La Pintana,CL,Chile,,201178,America/Santiago,-33.58331,-70.63419
Talca,Talca,CL,Chile,,197479,America/Santiago,-35.4264,-71.65542
Iquique,Iquique,CL,Chile,,191468,America/Santiago,-20.21326,-70.15027
Arica,Arica,CL,Chile,,185999,America/Santiago,-18.4746,-70.29792
Coquimbo,Coquimbo,CL,Chile,,161317,America/Santiago,-29.95332,-71.33947
La Serena,La Serena,CL,Chile,,154521,America/Santiago,-29.90453,-71.24894
Chillán,Chillan,CL,Chile,,150396,America/Santiago,-36.60664,-72.10344
Calama,Calama,CL,Chile,,143084,America/Santiago,-22.45667,-68.92371
Osorno,Osorno,CL,Chile,,135773,America/Santiago,-40.57395,-73.13348
Valdivia,Valdivia,CL,Chile,,133419,America/Santiago,-39.81422,-73.24589
Quilpué,Quilpue,CL,Chile,,130263,America/Santiago,-33.04752,-71.44249
Copiapó,Copiapo,CL,Chile,,129280,America/Santiago,-27.36679,-70.3314
Los Ángeles,Los Angeles,CL,Chile,,125430,America/Santiago,-37.46973,-72.35366
Punta Arenas,Punta Arenas,CL,Chile,,117430,America/Punta_Arenas,-53.15483,-70.91129
Alto Hospicio,Alto Hospicio,CL,Chile,,105065,America/Santiago,-20.26871,-70.1049
Lo Prado,Lo Prado,CL,Chile,,104316,America/Santiago,-33.4443,-70.72552
Curicó,Curico,CL,Chile,,102438,America/Santiago,-34.98279,-71.23943
Villa Alemana,Villa Alemana,CL,Chile,,97320,America/Santiago,-33.04222,-71.37333
Coronel,Coronel,CL,Chile,,92940,America/Santiago,-37.03386,-73.14019
San Antonio,San Antonio,CL,Chile,,85651,America/Santiago,-33.59473,-71.60746
Chiguayante,Chiguayante,CL,Chile,,82545,America/Santiago,-36.9256,-73.02841
Ovalle,Ovalle,CL,Chile,,77138,America/Santiago,-30.60106,-71.19901
Linares,Linares,CL,Chile,,69535,America/Santiago,-35.84667,-71.59308
Quillota,Quillota,CL,Chile,,67779,America/Santiago,-32.88341,-71.24882
Peñaflor,Penaflor,CL,Chile,,65495,America/Santiago,-33.60627,-70.87649
Melipilla,Melipilla,CL,Chile,,63100,America/Santiago,-33.68909,-71.21528
San Felipe,San Felipe,CL,Chile,,59294,America/Santiago,-32.74976,-70.72584
Los Andes,Los Andes,CL,Chile,,56859,America/Santiago,-32.83369,-70.59827
Buin,Buin,CL,Chile,,55441,America/Santiago,-33.73257,-70.74281
La Tirana,La Tirana,CL,Chile,,51896,America/Santiago,-20.28382,-70.12673
Talagante,Talagante,CL,Chile,,51764,America/Santiago,-33.66386,-70.92734
Shanghai,Shanghai,CN,China,,22315474,Asia/Shanghai,31.22222,121.45806
Beijing,Beijing,CN,China,,18960744,Asia/Shanghai,39.9075,116.39723
Shenzhen,Shenzhen,CN,China,,17494398,Asia/Shanghai,22.54554,114.0683
Guangzhou,Guangzhou,CN,China,,16096724,Asia/Shanghai,23.11667,113.25
Chengdu,Chengdu,CN,China,,13568357,Asia/Shanghai,30.66667,104.06667
Tianjin,Tianjin,CN,China,,11090314,Asia/Shanghai,39.14222,117.17667
Wuhan,Wuhan,CN,China,,10392693,Asia/Shanghai,30.58333,114.26667
Dongguan,Dongguan,CN,China,,9644871,Asia/Shanghai,23.01797,113.74866
Xi’an,Xi'an,CN,China,,9600000,Asia/Shanghai,34.25833,108.92861
Nanjing,Nanjing,CN,China,,9314685,Asia/Shanghai,32.06167,118.77778
Hangzhou,Hangzhou,CN,China,,9236032,Asia/Shanghai,30.29365,120.16142
Foshan,Foshan,CN,China,,9042509,Asia/Shanghai,23.02677,113.13148
Chongqing,Chongqing,CN,China,,7457599,Asia/Shanghai,29.56026,106.55771
Qingdao,Qingdao,CN,China,,7172451,Asia/Shanghai,36.06488,120.38042
Shenyang,Shenyang,CN,China,,7050000,Asia/Shanghai,41.79222,123.43278
Suzhou,Suzhou,CN,China,,6715559,Asia/Shanghai,31.30408,120.59538
Harbin,Harbin,CN,China,,5242897,Asia/Shanghai,45.75,126.65
Hefei,Hefei,CN,China,,5050000,Asia/Shanghai,31.86389,117.28083
Dalian,Dalian,CN,China,,4913879,Asia/Shanghai,38.91222,121.60222
Changchun,Changchun,CN,China,,4714996,Asia/Shanghai,43.88,125.32278
Xiamen,Xiamen,CN,China,,4617251,Asia/Shanghai,24.47979,118.08187
Wuxi,Wuxi,CN,China,,4396835,Asia/Shanghai,31.56887,120.28857
Jinan,Jinan,CN,China,,4335989,Asia/Shanghai,36.66833,116.99722
Taiyuan,Taiyuan,CN,China,,4303673,Asia/Shanghai,37.86944,112.56028
Zhengzhou,Zhengzhou,CN,China,,4253913,Asia/Shanghai,34.75778,113.64861
Shijiazhuang,Shijiazhuang,CN,China,,3938513,Asia/Shanghai,38.04139,114.47861
Kunming,Kunming,CN,China,,3855346,Asia/Shanghai,25.03889,102.71833
Zhongshan,Zhongshan,CN,China,,3841873,Asia/Shanghai,22.52306,113.37912
Nanning,Nanning,CN,China,,3839800,Asia/Shanghai,22.81667,108.31667
Shantou,Shantou,CN,China,,3838900,Asia/Shanghai,23.36814,116.71479
Fuzhou,Fuzhou,CN,China,,3740000,Asia/Shanghai,26.06139,119.30611
Ningbo,Ningbo,CN,China,,3731203,Asia/Shanghai,29.87819,121.54945
Puyang,Puyang,CN,China,,3590000,Asia/Shanghai,29.45679,119.88872
Shiyan,Shiyan,CN,China,,3460000,Asia/Shanghai,32.6475,110.77806
Tangshan,Tangshan,CN,China,,3372102,Asia/Shanghai,39.63333,118.18333
Changzhou,Changzhou,CN,China,,3290918,Asia/Shanghai,31.77359,119.95401
Zibo,Zibo,CN,China,,3129228,Asia/Shanghai,36.79056,118.06333
Changsha,Changsha,CN,China,,3093980,Asia/Shanghai,28.19874,112.97087
Guiyang,Guiyang,CN,China,,3037159,Asia/Shanghai,26.58333,106.71667
Ürümqi,UEruemqi,CN,China,,3029372,Asia/Urumqi,43.80096,87.60046
Lanzhou,Lanzhou,CN,China,,3000000,Asia/Shanghai,36.05701,103.83987
Huizhou,Huizhou,CN,China,,2900113,Asia/Shanghai,23.11147,114.41523
Haikou,Haikou,CN,China,,2873358,Asia/Shanghai,20.04583,110.34167
Linyi,Linyi,CN,China,,2743843,Asia/Shanghai,35.06306,118.34278
Baoding,Baoding,CN,China,,2739887,Asia/Shanghai,38.85111,115.49028
Wenzhou,Wenzhou,CN,China,,2650000,Asia/Shanghai,27.99942,120.66682
Yunfu,Yunfu,CN,China,,2612800,Asia/Shanghai,22.92787,112.03809
Huai'an,Huai'an,CN,China,,2494013,Asia/Shanghai,33.58861,119.01917
Nanchang,Nanchang,CN,China,,2357839,Asia/Shanghai,28.68396,115.85306
Hohhot,Hohhot,CN,China,,2350000,Asia/Shanghai,40.81056,111.65222
Shaoxing,Shaoxing,CN,China,,2300000,Asia/Shanghai,30.00237,120.57864
Nantong,Nantong,CN,China,,2273326,Asia/Shanghai,32.03028,120.87472
Yantai,Yantai,CN,China,,2227733,Asia/Shanghai,37.47649,121.44081
Zhuhai,Zhuhai,CN,China,,2207090,Asia/Shanghai,22.27694,113.56778
Baotou,Baotou,CN,China,,2150000,Asia/Shanghai,40.6516,109.84389
Kunshan,Kunshan,CN,China,,2092496,Asia/Shanghai,31.37762,120.95431
Weifang,Weifang,CN,China,,2044028,Asia/Shanghai,36.71,119.10194
Zunyi,Zunyi,CN,China,,2037775,Asia/Shanghai,27.68667,106.90722
Lianyungang,Lianyungang,CN,China,,2001009,Asia/Shanghai,34.59845,119.21556
Ganzhou,Ganzhou,CN,China,,1977253,Asia/Shanghai,25.84664,114.9326
Ordos,Ordos,CN,China,,1940653,Asia/Shanghai,39.6086,109.78157
Jieyang,Jieyang,CN,China,,1899394,Asia/Shanghai,23.5418,116.36581
Jilin,Jilin,CN,China,,1895865,Asia/Shanghai,43.85083,126.56028
Nanchong,Nanchong,CN,China,,1858875,Asia/Shanghai,30.79508,106.08473
Datong,Datong,CN,China,,1850000,Asia/Shanghai,40.09361,113.29139
Nanyang,Nanyang,CN,China,,1811812,Asia/Shanghai,32.99472,112.53278
Jiangmen,Jiangmen,CN,China,,1795459,Asia/Shanghai,22.58333,113.08333
Jiangyin,Jiangyin,CN,China,,1779515,Asia/Shanghai,31.91102,120.26302
Fuyang,Fuyang,CN,China,,1768947,Asia/Shanghai,32.9,115.81667
Bayan Nur,Bayan Nur,CN,China,,1760000,Asia/Shanghai,40.74143,107.38599
Chaozhou,Chaozhou,CN,China,,1750945,Asia/Shanghai,23.65396,116.62262
Qingyuan,Qingyuan,CN,China,,1738424,Asia/Shanghai,23.7,113.03333
Tai’an,Tai'an,CN,China,,1735425,Asia/Shanghai,36.18528,117.12
Xining,Xining,CN,China,,1677177,Asia/Shanghai,36.62554,101.75739
Changshu,Changshu,CN,China,,1677050,Asia/Shanghai,31.64615,120.74221
Huainan,Huainan,CN,China,,1666826,Asia/Shanghai,32.62639,116.99694
Suzhou,Suzhou,CN,China,,1647642,Asia/Shanghai,33.63611,116.97889
Lu’an,Lu'an,CN,China,,1644344,Asia/Shanghai,31.73561,116.51688
Yancheng,Yancheng,CN,China,,1615717,Asia/Shanghai,33.3575,120.1573
Taizhou,Taizhou,CN,China,,1607108,Asia/Shanghai,32.49069,119.90812
Daqing,Daqing,CN,China,,1604027,Asia/Shanghai,46.58333,125
Wuhu,Wuhu,CN,China,,1598165,Asia/Shanghai,31.33728,118.37351
Dazhou,Dazhou,CN,China,,1589435,Asia/Shanghai,31.2106,107.46308
Yangzhou,Yangzhou,CN,China,,1584237,Asia/Shanghai,32.39722,119.43583
Guilin,Guilin,CN,China,,1572300,Asia/Shanghai,25.28022,110.29639
Zhaoqing,Zhaoqing,CN,China,,1553109,Asia/Shanghai,23.04893,112.46091
Mianyang,Mianyang,CN,China,,1550000,Asia/Shanghai,31.46784,104.68168
Putian,Putian,CN,China,,1539389,Asia/Shanghai,25.43944,119.01028
Shangqiu,Shangqiu,CN,China,,1536392,Asia/Shanghai,34.45,115.65
Yinchuan,Yinchuan,CN,China,,1487579,Asia/Shanghai,38.46806,106.27306
Taizhou,Taizhou,CN,China,,1485502,Asia/Shanghai,28.66266,121.43312
Yiwu,Yiwu,CN,China,,1481384,Asia/Shanghai,29.31506,120.07676
Quanzhou,Quanzhou,CN,China,,1469157,Asia/Shanghai,24.91389,118.58583
Jinhua,Jinhua,CN,China,,1463990,Asia/Shanghai,29.10678,119.64421
Cixi,Cixi,CN,China,,1457510,Asia/Shanghai,30.1764,121.2457
Changde,Changde,CN,China,,1457419,Asia/Shanghai,29.03205,111.69844
Kaifeng,Kaifeng,CN,China,,1451741,Asia/Shanghai,34.7986,114.30742
Anshan,Anshan,CN,China,,1450000,Asia/Shanghai,41.12361,122.99
Baoji,Baoji,CN,China,,1437802,Asia/Shanghai,34.36775,107.23705
Suqian,Suqian,CN,China,,1437685,Asia/Shanghai,33.94917,118.29583
Liuzhou,Liuzhou,CN,China,,1436599,Asia/Shanghai,24.32405,109.40698
Zhangjiagang,Zhangjiagang,CN,China,,1432044,Asia/Shanghai,31.865,120.53889
Jinjiang,Jinjiang,CN,China,,1416151,Asia/Shanghai,24.81978,118.57415
Bozhou,Bozhou,CN,China,,1409436,Asia/Shanghai,33.87722,115.77028
Qujing,Qujing,CN,China,,1408500,Asia/Shanghai,25.48333,103.78333
Zhanjiang,Zhanjiang,CN,China,,1400709,Asia/Shanghai,21.23391,110.38749
Fushun,Fushun,CN,China,,1400646,Asia/Shanghai,41.88669,123.94363
Luoyang,Luoyang,CN,China,,1390581,Asia/Shanghai,34.68361,112.45361
Guankou,Guankou,CN,China,,1380000,Asia/Shanghai,28.15861,113.62709
Handan,Handan,CN,China,,1358318,Asia/Shanghai,36.60999,114.48764
Yichang,Yichang,CN,China,,1350150,Asia/Shanghai,30.71444,111.28472
Heze,Heze,CN,China,,1346717,Asia/Shanghai,35.23929,115.47358
Liupanshui,Liupanshui,CN,China,,1320825,Asia/Shanghai,26.59444,104.83333
Maoming,Maoming,CN,China,,1307802,Asia/Shanghai,21.66625,110.91364
Qinzhou,Qinzhou,CN,China,,1296300,Asia/Shanghai,21.98247,108.65061
Luohe,Luohe,CN,China,,1294974,Asia/Shanghai,33.56394,114.04272
Xiangyang,Xiangyang,CN,China,,1294733,Asia/Shanghai,32.0422,112.14479
Yangjiang,Yangjiang,CN,China,,1292987,Asia/Shanghai,21.85563,111.96272
Yixing,Yixing,CN,China,,1285785,Asia/Shanghai,31.36059,119.82016
Xuchang,Xuchang,CN,China,,1265536,Asia/Shanghai,34.03189,113.86299
Zigong,Zigong,CN,China,,1262064,Asia/Shanghai,29.34162,104.77689
Xuzhou,Xuzhou,CN,China,,1253991,Asia/Shanghai,34.20442,117.28386
Neijiang,Neijiang,CN,China,,1251095,Asia/Shanghai,29.58354,105.06216
Yiyang,Yiyang,CN,China,,1249807,Asia/Shanghai,28.58917,112.32833
Jining,Jining,CN,China,,1241012,Asia/Shanghai,35.405,116.58139
Xinyang,Xinyang,CN,China,,1230042,Asia/Shanghai,32.12278,114.06556
Liaocheng,Liaocheng,CN,China,,1229768,Asia/Shanghai,36.45064,116.00247
Jinzhong,Jinzhong,CN,China,,1226617,Asia/Shanghai,37.68403,112.75471
Changzhi,Changzhi,CN,China,,1214940,Asia/Shanghai,36.18389,113.10528
Tianshui,Tianshui,CN,China,,1212791,Asia/Shanghai,34.57952,105.74238
Weinan,Weinan,CN,China,,1199290,Asia/Shanghai,34.50355,109.50891
Jiaxing,Jiaxing,CN,China,,1180000,Asia/Shanghai,30.7522,120.75
Jiujiang,Jiujiang,CN,China,,1164268,Asia/Shanghai,29.70475,116.00206
Anyang,Anyang,CN,China,,1146839,Asia/Shanghai,36.096,114.38278
Bijie,Bijie,CN,China,,1137383,Asia/Shanghai,27.30193,105.28627
Zhuzhou,Zhuzhou,CN,China,,1129687,Asia/Shanghai,27.83333,113.15
Shangrao,Shangrao,CN,China,,1116486,Asia/Shanghai,28.45179,117.94287
Huaibei,Huaibei,CN,China,,1113321,Asia/Shanghai,33.97444,116.79167
Meishan,Meishan,CN,China,,1107742,Asia/Shanghai,30.04392,103.83696
Fuzhou,Fuzhou,CN,China,,1089888,Asia/Shanghai,27.95999,116.33333
Guigang,Guigang,CN,China,,1086327,Asia/Shanghai,23.11603,109.59472
Hengyang,Hengyang,CN,China,,1075516,Asia/Shanghai,26.88946,112.61888
Yulin,Yulin,CN,China,,1056743,Asia/Shanghai,22.6305,110.14686
Jingzhou,Jingzhou,CN,China,,1052282,Asia/Shanghai,30.35028,112.19028
Xinxiang,Xinxiang,CN,China,,1047088,Asia/Shanghai,35.19033,113.80151
Yichun,Yichun,CN,China,,1045952,Asia/Shanghai,27.83333,114.4
Xianyang,Xianyang,CN,China,,1034081,Asia/Shanghai,34.33778,108.70261
Sanya,Sanya,CN,China,,1031396,Asia/Shanghai,18.24306,109.505
Shaoguan,Shaoguan,CN,China,,1028460,Asia/Shanghai,24.8,113.58333
Longyan,Longyan,CN,China,,1025087,Asia/Shanghai,25.07485,117.01775
Yongzhou,Yongzhou,CN,China,,1020715,Asia/Shanghai,26.42389,111.61306
Huzhou,Huzhou,CN,China,,1015937,Asia/Shanghai,30.8703,120.0933
Wuwei,Wuwei,CN,China,,1010295,Asia/Shanghai,37.92672,102.63202
Hanzhong,Hanzhong,CN,China,,1006557,Asia/Shanghai,33.07507,107.02214
Hezhou,Hezhou,CN,China,,1005490,Asia/Shanghai,24.40357,111.56675
Zhu Cheng City,Zhu Cheng City,CN,China,,1000000,Asia/Shanghai,35.99502,119.40259
Dongying,Dongying,CN,China,,998968,Asia/Shanghai,37.46271,118.49165
Luzhou,Luzhou,CN,China,,998900,Asia/Shanghai,28.8903,105.42575
Meizhou,Meizhou,CN,China,,992351,Asia/Shanghai,24.28859,116.11768
Yueyang,Yueyang,CN,China,,991465,Asia/Shanghai,29.37455,113.09481
Laiwu,Laiwu,CN,China,,989535,Asia/Shanghai,36.19278,117.65694
Benxi,Benxi,CN,China,,987717,Asia/Shanghai,41.28861,123.765
Pingdingshan,Pingdingshan,CN,China,,979130,Asia/Shanghai,33.73847,113.30119
Bengbu,Bengbu,CN,China,,972784,Asia/Shanghai,32.94083,117.36083
Xiangtan,Xiangtan,CN,China,,959303,Asia/Shanghai,27.85,112.9
Linfen,Linfen,CN,China,,959198,Asia/Shanghai,36.08889,111.51889
Zhenjiang,Zhenjiang,CN,China,,950516,Asia/Shanghai,32.21086,119.45508
Baoshan,Baoshan,CN,China,,935618,Asia/Shanghai,25.11626,99.16366
Rui’an,Rui'an,CN,China,,927383,Asia/Shanghai,27.77605,120.65859
Laibin,Laibin,CN,China,,910282,Asia/Shanghai,23.74743,109.22222
Xiaogan,Xiaogan,CN,China,,908266,Asia/Shanghai,30.92689,113.92221
Ziyang,Ziyang,CN,China,,905729,Asia/Shanghai,30.12108,104.64811
Quzhou,Quzhou,CN,China,,902767,Asia/Shanghai,28.95944,118.86861
Zaozhuang,Zaozhuang,CN,China,,899753,Asia/Shanghai,34.86472,117.55417
Pingxiang,Pingxiang,CN,China,,893550,Asia/Shanghai,27.61672,113.85353
Zhoushan,Zhoushan,CN,China,,882932,Asia/Shanghai,29.98869,122.20488
Qiqihar,Qiqihar,CN,China,,882364,Asia/Shanghai,47.33922,123.96154
Puning,Puning,CN,China,,874954,Asia/Shanghai,23.31072,116.16869
Ankang,Ankang,CN,China,,870126,Asia/Shanghai,32.68,109.01722
Langfang,Langfang,CN,China,,868066,Asia/Shanghai,39.50972,116.69472
Jiaozuo,Jiaozuo,CN,China,,865413,Asia/Shanghai,35.23972,113.23306
Wanxian,Wanxian,CN,China,,859662,Asia/Shanghai,30.81601,108.37407
Guang’an,Guang'an,CN,China,,858159,Asia/Shanghai,30.47413,106.63696
Weihai,Weihai,CN,China,,844310,Asia/Shanghai,37.50914,122.11356
Zhabei,Zhabei,CN,China,,840000,Asia/Shanghai,31.25861,121.45972
Xinyu,Xinyu,CN,China,,839488,Asia/Shanghai,27.80429,114.93335
Yibin,Yibin,CN,China,,836340,Asia/Shanghai,28.7593,104.63994
Taicang,Taicang,CN,China,,831113,Asia/Shanghai,31.44778,121.09389
Chenzhou,Chenzhou,CN,China,,822534,Asia/Shanghai,25.8,113.03333
Anqing,Anqing,CN,China,,804493,Asia/Shanghai,30.51365,117.04723
Xingtai,Xingtai,CN,China,,798770,Asia/Shanghai,37.06306,114.49417
Zhaotong,Zhaotong,CN,China,,787845,Asia/Shanghai,27.31667,103.71667
Panzhihua,Panzhihua,CN,China,,787177,Asia/Shanghai,26.58509,101.71276
Chuzhou,Chuzhou,CN,China,,782671,Asia/Shanghai,32.32194,118.29778
Xuanzhou,Xuanzhou,CN,China,,774332,Asia/Shanghai,30.9525,118.75528
Shangyu,Shangyu,CN,China,,770000,Asia/Shanghai,30.01556,120.87111
Anshun,Anshun,CN,China,,765313,Asia/Shanghai,26.25,105.93333
Wuzhou,Wuzhou,CN,China,,761948,Asia/Shanghai,23.48054,111.28848
Qinhuangdao,Qinhuangdao,CN,China,,759718,Asia/Shanghai,39.93167,119.58833
Shaoyang,Shaoyang,CN,China,,753194,Asia/Shanghai,27.23818,111.46214
Hegang,Hegang,CN,China,,743307,Asia/Shanghai,47.34727,130.29033
Ma’anshan,Ma'anshan,CN,China,,741531,Asia/Shanghai,31.68579,118.51008
Deyang,Deyang,CN,China,,735070,Asia/Shanghai,31.13019,104.38198
Yangquan,Yangquan,CN,China,,731228,Asia/Shanghai,37.8575,113.56333
Wanzhou,Wanzhou,CN,China,,723215,Asia/Shanghai,30.76451,108.39586
Zhumadian,Zhumadian,CN,China,,721670,Asia/Shanghai,32.97944,114.02944
Changzhi,Changzhi,CN,China,,699514,Asia/Shanghai,35.20889,111.73861
Zhangjiakou,Zhangjiakou,CN,China,,692602,Asia/Shanghai,40.78341,114.87139
Fuxin,Fuxin,CN,China,,689050,Asia/Shanghai,42.01556,121.65889
Huangshi,Huangshi,CN,China,,688090,Asia/Shanghai,30.24706,115.04814
Liaoyang,Liaoyang,CN,China,,687890,Asia/Shanghai,41.27194,123.17306
Baise,Baise,CN,China,,686078,Asia/Shanghai,23.89013,106.62684
Binzhou,Binzhou,CN,China,,682717,Asia/Shanghai,37.36667,118.01667
Yuncheng,Yuncheng,CN,China,,680036,Asia/Shanghai,35.02306,110.99278
Dezhou,Dezhou,CN,China,,679535,Asia/Shanghai,37.44661,116.36706
Sanmenxia,Sanmenxia,CN,China,,669307,Asia/Shanghai,34.77472,111.18139
E’zhou,E'zhou,CN,China,,668727,Asia/Shanghai,30.39607,114.88655
Mudanjiang,Mudanjiang,CN,China,,665915,Asia/Shanghai,44.54804,129.62594
Leshan,Leshan,CN,China,,662814,Asia/Shanghai,29.56227,103.76386
Rizhao,Rizhao,CN,China,,661943,Asia/Shanghai,35.41414,119.52908
Suining,Suining,CN,China,,656760,Asia/Shanghai,30.50802,105.57332
Puyang,Puyang,CN,China,,655674,Asia/Shanghai,35.76318,115.01721
Hebi,Hebi,CN,China,,634721,Asia/Shanghai,35.89917,114.1925
Jingmen,Jingmen,CN,China,,632954,Asia/Shanghai,31.03361,112.20472
Dandong,Dandong,CN,China,,631973,Asia/Shanghai,40.12917,124.39472
Panshan,Panshan,CN,China,,625040,Asia/Shanghai,41.18806,122.04944
Jiaozhou,Jiaozhou,CN,China,,619266,Asia/Shanghai,36.28389,120.00333
Suizhou,Suizhou,CN,China,,618582,Asia/Shanghai,31.71111,113.36306
Chizhou,Chizhou,CN,China,,615274,Asia/Shanghai,30.66134,117.47783
Ya'an,Ya'an,CN,China,,612056,Asia/Shanghai,29.98521,102.999
Jinzhou,Jinzhou,CN,China,,604269,Asia/Shanghai,41.10778,121.14167
Sanming,Sanming,CN,China,,602166,Asia/Shanghai,26.24861,117.61861
Shuangyashan,Shuangyashan,CN,China,,600000,Asia/Shanghai,46.67686,131.13273
Luancheng,Luancheng,CN,China,,597130,Asia/Shanghai,37.87917,114.65167
Yingkou,Yingkou,CN,China,,591159,Asia/Shanghai,40.66472,122.23176
Zhangzhou,Zhangzhou,CN,China,,589831,Asia/Shanghai,24.51333,117.65556
Shihezi,Shihezi,CN,China,,572772,Asia/Urumqi,44.3023,86.03694
Wenchang,Wenchang,CN,China,,560894,Asia/Shanghai,19.6157,110.74894
Siping,Siping,CN,China,,555609,Asia/Shanghai,43.16143,124.37785
Huaihua,Huaihua,CN,China,,552622,Asia/Shanghai,27.56337,110.00404
Jiamusi,Jiamusi,CN,China,,549549,Asia/Shanghai,46.79711,130.31118
Korla,Korla,CN,China,,549324,Asia/Urumqi,41.76055,86.15231
Wanning,Wanning,CN,China,,545992,Asia/Shanghai,18.79931,110.3841
Xinzhou,Xinzhou,CN,China,,544683,Asia/Shanghai,38.40917,112.73333
Pingdu,Pingdu,CN,China,,542234,Asia/Shanghai,36.78444,119.94639
Ji’an,Ji'an,CN,China,,538699,Asia/Shanghai,27.11716,114.97927
Guli,Guli,CN,China,,536000,Asia/Shanghai,28.88162,120.03308
Aksu,Aksu,CN,China,,535657,Asia/Urumqi,41.18418,80.27921
